,Unnamed: 0,District,Sub-District,Vaccination Site Name,Type of site,Pfizer or J&J,Start Date,Site Active (Yes/No),Open Days per week,Capacity per day,Latitude,Longitude,Municipality,DISTRICT_N,DISTRICT_C
0,0,C Hani DM,Enoch Mgijima LM,ec Lizo Ngcana Clinic,Clinic,Pfizer,7/19/2021,To start next week,5 days,80.0,-31.90713,26.96298,Enoch Mgijima,Chris Hani,DC13
1,1,C Hani DM,Enoch Mgijima LM,ec Lesseyton Clinic,Clinic,Pfizer,7/19/2021,To start next week,5 days,80.0,-31.84843,26.77795,Enoch Mgijima,Chris Hani,DC13
2,2,O Tambo DM,King Sabata Dalindyebo LM,ec SOS Clinic,Clinic,J&J,6/16/2021,Yes,5 days,40.0,-31.73637,28.46856,King Sabata Dalindyebo,O.R.Tambo,DC15
3,3,O Tambo DM,King Sabata Dalindyebo LM,ec Ntshele Clinic,Clinic,J&J,6/16/2021,Yes,5 days,40.0,-31.67409,28.73104,King Sabata Dalindyebo,O.R.Tambo,DC15
4,4,O Tambo DM,King Sabata Dalindyebo LM,ec Sangoni Clinic,Clinic,J&J,6/16/2021,Yes,5 days,40.0,-31.73637,28.46856,King Sabata Dalindyebo,O.R.Tambo,DC15
5,5,O Tambo DM,King Sabata Dalindyebo LM,ec Qokolweni Clinic,Clinic,J&J,6/16/2021,Yes,5 days,40.0,-31.71774,28.78358,King Sabata Dalindyebo,O.R.Tambo,DC15
6,6,O Tambo DM,King Sabata Dalindyebo LM,ec Maxwele Clinic,Clinic,J&J,6/16/2021,Yes,5 days,40.0,-31.73637,28.46856,King Sabata Dalindyebo,O.R.Tambo,DC15
7,7,O Tambo DM,King Sabata Dalindyebo LM,ec Mpeko Clinic,Clinic,J&J,6/16/2021,Yes,5 days,40.0,-31.73637,28.46856,King Sabata Dalindyebo,O.R.Tambo,DC15
8,8,O Tambo DM,King Sabata Dalindyebo LM,ec Ngqwarha Clinic,Clinic,J&J,6/16/2021,Yes,5 days,40.0,-31.79697,28.7695,King Sabata Dalindyebo,O.R.Tambo,DC15
9,9,O Tambo DM,King Sabata Dalindyebo LM,ec Ngcengane Clinic,Clinic,J&J,6/16/2021,Yes,5 days,40.0,-31.73637,28.46856,King Sabata Dalindyebo,O.R.Tambo,DC15
10,10,O Tambo DM,King Sabata Dalindyebo LM,ec Tabase Clinic,Clinic,J&J,6/16/2021,Yes,5 days,40.0,-31.58519,28.57611,King Sabata Dalindyebo,O.R.Tambo,DC15
11,11,O Tambo DM,King Sabata Dalindyebo LM,ec Qunu Clinic,Clinic,J&J,6/16/2021,Yes,5 days,40.0,-31.77387,28.62003,King Sabata Dalindyebo,O.R.Tambo,DC15
12,12,O Tambo DM,King Sabata Dalindyebo LM,ec Xhwili Clinic,Clinic,J&J,6/16/2021,Yes,5 days,40.0,-31.73637,28.46856,King Sabata Dalindyebo,O.R.Tambo,DC15
13,13,O Tambo DM,King Sabata Dalindyebo LM,ec Upper Xongora Clinic,Clinic,J&J,6/16/2021,Yes,5 days,40.0,-31.67193,28.51666,King Sabata Dalindyebo,O.R.Tambo,DC15
14,14,O Tambo DM,King Sabata Dalindyebo LM,ec Mpunzana Clinic,Clinic,J&J,6/16/2021,Yes,5 days,40.0,-31.73637,28.46856,King Sabata Dalindyebo,O.R.Tambo,DC15
15,15,O Tambo DM,King Sabata Dalindyebo LM,ec Mahlungulu Clinic (KSD),Clinic,J&J,6/16/2021,Yes,5 days,40.0,-31.73637,28.46856,King Sabata Dalindyebo,O.R.Tambo,DC15
16,16,O Tambo DM,King Sabata Dalindyebo LM,ec Bityi Clinic,Clinic,J&J,6/16/2021,Yes,5 days,40.0,-31.8092,28.53475,King Sabata Dalindyebo,O.R.Tambo,DC15
17,17,O Tambo DM,King Sabata Dalindyebo LM,ec Mqhekezweni Clinic,Clinic,J&J,6/16/2021,Yes,5 days,40.0,-31.73637,28.46856,King Sabata Dalindyebo,O.R.Tambo,DC15
18,18,O Tambo DM,King Sabata Dalindyebo LM,ec Tyelebana Clinic,Clinic,J&J,6/16/2021,Yes,5 days,40.0,-31.80164,28.39144,King Sabata Dalindyebo,O.R.Tambo,DC15
19,19,O Tambo DM,King Sabata Dalindyebo LM,ec Sakhela Clinic,Clinic,J&J,6/16/2021,Yes,5 days,40.0,-31.84503,28.63709,King Sabata Dalindyebo,O.R.Tambo,DC15
20,20,O Tambo DM,King Sabata Dalindyebo LM,ec Sitebe Clinic,Clinic,J&J,6/16/2021,Yes,5 days,40.0,-31.80785,28.49659,King Sabata Dalindyebo,O.R.Tambo,DC15
21,21,Buffalo City MM,Buffalo City SD,ec Welcomewood Clinic,Clinic,Pfizer,6/28/2021,Yes,5 days,40.0,-33.02567,27.51067,Buffalo City,Buffalo City,BUF
22,22,Buffalo City MM,Buffalo City SD,ec Zanempilo Clinic (East London),Clinic,Pfizer,5/27/2021,Yes,5 days,40.0,-33.01344,27.9042,Buffalo City,Buffalo City,BUF
23,23,Buffalo City MM,Buffalo City SD,ec Zanempilo Clinic (Zwelitsha),Clinic,Pfizer,6/29/2021,Yes,5 days,40.0,-28.996320724487305,25.087142944335938,Buffalo City,Buffalo City,BUF
24,24,Buffalo City MM,Buffalo City SD,ec Zikhova Clinic,Clinic,Pfizer,6/11/2021,Yes,5 days,40.0,-33.23092,27.47731,Buffalo City,Buffalo City,BUF
25,25,Amathole DM,Raymond Mhlaba LM,ec Mgwalana Clinic,Clinic,J&J,7/27/2021,To start next week,5 days,40.0,-32.59419,26.93739,Raymond Mhlaba,Amathole,DC12
26,26,A Nzo DM,Matatiele LM,ec Matatiele Community Clinic,Clinic,Pfizer,7/19/2021,To start next week,5 days,80.0,-30.25465,28.71224,Matatiele,Alfred Nzo,DC44
27,27,A Nzo DM,Matatiele LM,ec Mount Hargreaves Clinic,Clinic,J&J,7/19/2021,To start next week,5 days,40.0,-30.40515,28.70847,Matatiele,Alfred Nzo,DC44
28,28,A Nzo DM,Matatiele LM,ec Rolweni Clinic,Clinic,J&J,7/26/2021,To start next week,5 days,40.0,-30.55254,28.81915,Matatiele,Alfred Nzo,DC44
29,29,A Nzo DM,Matatiele LM,ec Nyaniso Clinic,Clinic,J&J,7/26/2021,To start next week,5 days,40.0,-30.57957,28.7571,Matatiele,Alfred Nzo,DC44
30,30,A Nzo DM,Matatiele LM,ec Mvenyane Clinic,Clinic,J&J,7/26/2021,To start next week,5 days,40.0,-28.996320724487305,25.087142944335938,Matatiele,Alfred Nzo,DC44
31,31,A Nzo DM,Matatiele LM,ec Elukholweni Clinic,Clinic,J&J,7/26/2021,To start next week,5 days,40.0,-28.996320724487305,25.087142944335938,Matatiele,Alfred Nzo,DC44
32,32,O Tambo DM,King Sabata Dalindyebo LM,ec Hlabatshane Clinic,Clinic,J&J,6/16/2021,Yes,5 days,40.0,-31.76636,28.87017,King Sabata Dalindyebo,O.R.Tambo,DC15
33,33,Amathole DM,Amahlathi LM,ec Mgwali Clinic,Clinic,J&J,6/23/2021,Yes,5 days,40.0,-32.46382,27.60709,Amahlathi,Amathole,DC12
34,34,Amathole DM,Great Kei LM,ec Mooiplaas Clinic,Clinic,J&J,6/14/2021,Yes,5 days,40.0,-32.57658,27.89247,Great Kei,Amathole,DC12
35,35,Amathole DM,Mbhashe LM,ec Mpame Clinic,Clinic,J&J,7/21/2021,To start next week,5 days,40.0,-32.14504,28.41468,Mbhashe,Amathole,DC12
36,36,Amathole DM,Mbhashe LM,ec Mpozolo Clinic,Clinic,J&J,7/27/2021,To start next week,5 days,40.0,-32.1669,28.776,Mbhashe,Amathole,DC12
37,37,Amathole DM,Mnquma LM,ec Mqambeli Clinic,Clinic,J&J,7/2/2020,Yes,5 days,40.0,-32.42488,28.10009,Mnquma,Amathole,DC12
38,38,Amathole DM,Mbhashe LM,ec Mqhele Clinic,Clinic,J&J,7/19/2021,To start next week,5 days,40.0,-32.02223,28.89588,Mbhashe,Amathole,DC12
39,39,Amathole DM,Mbhashe LM,ec Msendo Clinic,Clinic,J&J,To be determined,To start next week,5 days,40.0,-32.17919,28.7752,Mbhashe,Amathole,DC12
40,40,Amathole DM,Raymond Mhlaba LM,ec Msobomvu Clinic,Clinic,J&J,7/22/2021,To start next week,5 days,40.0,-32.69786,26.8588,Raymond Mhlaba,Amathole,DC12
41,41,Amathole DM,Ngqushwa LM,ec Mtombe Clinic,Clinic,J&J,7/6/2020,Yes,5 days,40.0,-33.07088,27.32299,Ngqushwa,Amathole,DC12
42,42,Amathole DM,Ngqushwa LM,ec Mtyholo Clinic,Clinic,J&J,7/7/2020,Yes,5 days,40.0,-32.99203,27.35739,Ngqushwa,Amathole,DC12
43,43,Amathole DM,Raymond Mhlaba LM,ec Mxhelo Clinic,Clinic,J&J,7/6/2021,Yes,5 days,40.0,-32.77825,26.71968,Raymond Mhlaba,Amathole,DC12
44,44,Amathole DM,Raymond Mhlaba LM,ec Mzamomhle Clinic (Bedford),Clinic,J&J,7/20/2021,To start next week,5 days,40.0,-32.59419,26.93739,Raymond Mhlaba,Amathole,DC12
45,45,Amathole DM,Mnquma LM,ec Ncizele Clinic,Clinic,J&J,7/8/2020,Yes,5 days,40.0,-32.60569,28.43626,Mnquma,Amathole,DC12
46,46,Amathole DM,Ngqushwa LM,ec Ndwayana Clinic,Clinic,J&J,6/10/2021,Yes,5 days,40.0,-28.996320724487305,25.087142944335938,Ngqushwa,Amathole,DC12
47,47,Buffalo City MM,Buffalo City SD,ec Zingisa NU 5 Clinic,Clinic,Pfizer,5/17/2021,Yes,5 days,40.0,-32.91448,27.50426,Buffalo City,Buffalo City,BUF
48,48,Amathole DM,Raymond Mhlaba LM,ec Newtown Clinic,Clinic,J&J,7/27/2021,To start next week,5 days,40.0,-32.86592,27.04519,Raymond Mhlaba,Amathole,DC12
49,49,A Nzo DM,Umzimvubu LM,ec Mount Ayliff Gateway Clinic,Clinic,Pfizer,2021-07-19 00:00:00,To start next week,5 days,80.0,-30.8016,29.37104,Umzimvubu,Alfred Nzo,DC44
50,50,A Nzo DM,Umzimvubu LM,ec Dundee Clinic,Clinic,J&J,2021-07-19 00:00:00,To start next week,5 days,40.0,-30.90234,28.99333,Umzimvubu,Alfred Nzo,DC44
51,51,A Nzo DM,Umzimvubu LM,ec Tela Clinic,Clinic,J&J,2021-07-26 00:00:00,To start next week,5 days,40.0,-30.76518,29.45387,Umzimvubu,Alfred Nzo,DC44
52,52,A Nzo DM,Umzimvubu LM,ec Lubaleko Clinic,Clinic,J&J,2021-07-19 00:00:00,To start next week,5 days,40.0,-30.90234,28.99333,Umzimvubu,Alfred Nzo,DC44
53,53,A Nzo DM,Ntabankulu LM,ec Mfundisweni Clinic,Clinic,J&J,2021-07-21 00:00:00,To start next week,5 days,40.0,-30.90202,29.51849,Ntabankulu,Alfred Nzo,DC44
54,54,A Nzo DM,Ntabankulu LM,ec Ntshentshe Clinic,Clinic,J&J,2021-07-19 00:00:00,To start next week,5 days,40.0,-30.96109,29.30236,Ntabankulu,Alfred Nzo,DC44
55,55,A Nzo DM,Mbizana LM,ec Amantshangase Clinic,Clinic,J&J,2021-07-19 00:00:00,To start next week,5 days,40.0,-31.92743,27.34241,Mbizana,Alfred Nzo,DC44
56,56,Sarah Baartman DM,Ndlambe LM,ec Port Alfred Clinic,Clinic,J&J,2021-08-02 00:00:00,To start next week,5 days,80.0,-33.59087,26.88889,Ndlambe,Sarah Baartman,DC10
57,57,Sarah Baartman DM,Ndlambe LM,ec Station Hill Clinic,Clinic,J&J,2021-08-02 00:00:00,To start next week,5 days,80.0,-33.58727,26.90786,Ndlambe,Sarah Baartman,DC10
58,58,Sarah Baartman DM,Ndlambe LM,ec Pal 2 Clinic,Clinic,J&J,2021-08-02 00:00:00,To start next week,5 days,80.0,-33.66129,26.4257,Ndlambe,Sarah Baartman,DC10
59,59,Sarah Baartman DM,Ndlambe LM,ec Nkwenkwezi Clinic,Clinic,J&J,2021-08-02 00:00:00,To start next week,5 days,80.0,-33.57428,26.89037,Ndlambe,Sarah Baartman,DC10
60,60,Sarah Baartman DM,Ndlambe LM,ec Pal 1 Clinic,Clinic,J&J,2021-08-02 00:00:00,To start next week,5 days,80.0,-33.66077,26.42595,Ndlambe,Sarah Baartman,DC10
61,61,Sarah Baartman DM,Dr B NaudÂ‚ LM,ec Brug Straat Clinic (Jansenville),Clinic,J&J,2020-07-22 00:00:00,To start next week,5 days,80.0,-28.996320724487305,25.087142944335938,Dr Beyers Naude,Sarah Baartman,DC10
62,62,Sarah Baartman DM,Dr B NaudÂ‚ LM,ec Wongalethu Clinic,Clinic,J&J,2020-07-22 00:00:00,To start next week,5 days,80.0,-33.3272,24.34468,Dr Beyers Naude,Sarah Baartman,DC10
63,63,Sarah Baartman DM,Dr B NaudÂ‚ LM,ec Baviaans Clinic,Clinic,J&J,2020-07-22 00:00:00,To start next week,5 days,80.0,-33.3272,24.34468,Dr Beyers Naude,Sarah Baartman,DC10
64,64,Sarah Baartman DM,Makana LM,ec Anglo African Street Clinic,Clinic,J&J,2020-07-26 00:00:00,To start next week,5 days,80.0,-33.3095,26.52445,Makana,Sarah Baartman,DC10
65,65,Sarah Baartman DM,Makana LM,ec Middle Terrace Clinic,Clinic,J&J,2020-07-26 00:00:00,To start next week,5 days,80.0,-33.29862,26.53746,Makana,Sarah Baartman,DC10
66,66,Sarah Baartman DM,Makana LM,ec Raglan Road Clinic,Clinic,J&J,2020-07-26 00:00:00,To start next week,5 days,80.0,-33.28762,26.57569,Makana,Sarah Baartman,DC10
67,67,Sarah Baartman DM,Makana LM,ec Virginia Shumane Clinic,Clinic,J&J,2020-07-26 00:00:00,To start next week,5 days,80.0,-33.20178,26.15605,Makana,Sarah Baartman,DC10
68,68,Sarah Baartman DM,Makana LM,ec Joza Clinic,Clinic,J&J,2020-07-26 00:00:00,To start next week,5 days,80.0,-33.20178,26.15605,Makana,Sarah Baartman,DC10
69,69,Sarah Baartman DM,Makana LM,ec NG Dlukulu Clinic,Clinic,J&J,2020-07-26 00:00:00,To start next week,5 days,80.0,-33.20178,26.15605,Makana,Sarah Baartman,DC10
70,70,Sarah Baartman DM,Makana LM,ec Raymond Mhlaba Clinic,Clinic,J&J,2020-07-26 00:00:00,To start next week,5 days,80.0,-32.59419,26.93739,Makana,Sarah Baartman,DC10
71,71,Sarah Baartman DM,Makana LM,ec Kwa-Nonzwakazi Clinic,Clinic,J&J,2020-07-26 00:00:00,To start next week,5 days,80.0,-28.996320724487305,25.087142944335938,Makana,Sarah Baartman,DC10
72,72,Sarah Baartman DM,Ndlambe LM,ec Alexandria Clinic,Clinic,J&J,2021-08-02 00:00:00,To start next week,5 days,80.0,-33.50144,26.82257,Ndlambe,Sarah Baartman,DC10
73,73,Sarah Baartman DM,Ndlambe LM,ec Kwa-Nonqubela Clinic,Clinic,J&J,2021-08-02 00:00:00,To start next week,5 days,80.0,-28.996320724487305,25.087142944335938,Ndlambe,Sarah Baartman,DC10
74,74,A Nzo DM,Ntabankulu LM,ec Matubeni Clinic,Clinic,J&J,2021-07-21 00:00:00,To start next week,5 days,40.0,-30.96109,29.30236,Ntabankulu,Alfred Nzo,DC44
75,75,O Tambo DM,Mhlontlo LM,ec Mdyobe Clinic,Clinic,J&J,2021-07-20 00:00:00,To start next week,5 days,40.0,-31.16141,28.86828,Mhlontlo,O.R.Tambo,DC15
76,76,A Nzo DM,Ntabankulu LM,ec Dungu Clinic,Clinic,J&J,2021-07-19 00:00:00,To start next week,5 days,40.0,-31.22052,29.20454,Ntabankulu,Alfred Nzo,DC44
77,77,O Tambo DM,Mhlontlo LM,ec Mbalisweni Clinic,Clinic,J&J,2021-06-23 00:00:00,Yes,5 days,40.0,-31.16846,28.95979,Mhlontlo,O.R.Tambo,DC15
78,78,O Tambo DM,Mhlontlo LM,ec Tina Falls Clinic,Clinic,J&J,2021-06-23 00:00:00,Yes,5 days,40.0,-31.21726,29.02623,Mhlontlo,O.R.Tambo,DC15
79,79,O Tambo DM,Ingquza Hill LM,ec Mantlaneni Clinic,Clinic,J&J,2021-07-05 00:00:00,Yes,5 days,40.0,-28.996320724487305,25.087142944335938,Ngquza Hill,O.R.Tambo,DC15
80,80,O Tambo DM,Mhlontlo LM,ec Ngwemnyama Clinic,Clinic,J&J,2021-06-23 00:00:00,Yes,5 days,40.0,-31.24061,28.99156,Mhlontlo,O.R.Tambo,DC15
81,81,Amathole DM,Mnquma LM,ec Ngqusi Clinic,Clinic,J&J,2020-07-12 00:00:00,Yes,5 days,40.0,-32.49195,28.40889,Mnquma,Amathole,DC12
82,82,Amathole DM,Ngqushwa LM,ec Nier Clinic,Clinic,J&J,2021-06-21 00:00:00,Yes,5 days,40.0,-33.31734,27.34098,Ngqushwa,Amathole,DC12
83,83,Amathole DM,Raymond Mhlaba LM,ec Njwaxa Clinic,Clinic,J&J,2021-07-27 00:00:00,To start next week,5 days,40.0,-32.59419,26.93739,Raymond Mhlaba,Amathole,DC12
84,84,Amathole DM,Mbhashe LM,ec Nkanya Clinic,Clinic,J&J,2021-07-12 00:00:00,Yes,5 days,40.0,-32.19318,28.92952,Mbhashe,Amathole,DC12
85,85,Amathole DM,Ngqushwa LM,ec Norah Clinic,Clinic,J&J,2021-06-15 00:00:00,Yes,5 days,40.0,-28.996320724487305,25.087142944335938,Ngqushwa,Amathole,DC12
86,86,Amathole DM,Mnquma LM,ec Nozuko Clinic,Clinic,J&J,2020-07-02 00:00:00,Yes,5 days,40.0,-32.50866,28.31928,Mnquma,Amathole,DC12
87,87,Amathole DM,Mbhashe LM,ec Nqabara Clinic,Clinic,J&J,2021-07-26 00:00:00,To start next week,5 days,40.0,-32.3302,28.79782,Mbhashe,Amathole,DC12
88,88,Amathole DM,Mbhashe LM,ec Nqabeni Clinic,Clinic,J&J,2021-06-23 00:00:00,Yes,5 days,40.0,-28.996320724487305,25.087142944335938,Mbhashe,Amathole,DC12
89,89,Buffalo City MM,Buffalo City SD,ec Zwelitsha Zone 5 Clinic,Clinic,Pfizer,2021-05-18 00:00:00,Yes,5 days,40.0,-28.996320724487305,25.087142944335938,Buffalo City,Buffalo City,BUF
90,90,Amathole DM,Mbhashe LM,ec Nqadu Clinic (Mbhashe),Clinic,J&J,2021-06-30 00:00:00,Yes,5 days,40.0,-32.21656,28.38549,Mbhashe,Amathole,DC12
91,91,Amathole DM,Amahlathi LM,ec Ntaba ka Ndoda Clinic,Clinic,J&J,2021-06-17 00:00:00,Yes,5 days,40.0,-28.996320724487305,25.087142944335938,Amahlathi,Amathole,DC12
92,92,O Tambo DM,Nyandeni LM,ec St Barnabas Gateway Clinic,Clinic,J&J,2021-06-28 00:00:00,Yes,5 days,40.0,-28.996320724487305,25.087142944335938,Nyandeni,O.R.Tambo,DC15
93,93,O Tambo DM,Nyandeni LM,ec Mampondomiseni Clinic,Clinic,J&J,2021-06-28 00:00:00,Yes,5 days,40.0,-28.996320724487305,25.087142944335938,Nyandeni,O.R.Tambo,DC15
94,94,O Tambo DM,Nyandeni LM,ec Libode Clinic,Clinic,J&J,2021-06-07 00:00:00,Yes,5 days,40.0,-28.996320724487305,25.087142944335938,Nyandeni,O.R.Tambo,DC15
95,95,O Tambo DM,Nyandeni LM,ec Nontsikelelo Biko Clinic,Clinic,J&J,2021-06-28 00:00:00,Yes,5 days,40.0,-31.47298,28.90907,Nyandeni,O.R.Tambo,DC15
96,96,O Tambo DM,Nyandeni LM,ec Mgwenyane Clinic,Clinic,J&J,2021-06-28 00:00:00,Yes,5 days,40.0,-31.5535,29.23402,Nyandeni,O.R.Tambo,DC15
97,97,O Tambo DM,Nyandeni LM,ec Nkanga Clinic,Clinic,J&J,2021-06-28 00:00:00,Yes,5 days,40.0,-31.46602,29.17136,Nyandeni,O.R.Tambo,DC15
98,98,O Tambo DM,Nyandeni LM,ec Old Bunting Clinic,Clinic,J&J,2021-06-07 00:00:00,Yes,5 days,40.0,-31.67538,29.17161,Nyandeni,O.R.Tambo,DC15
99,99,O Tambo DM,Nyandeni LM,ec Ndanya Clinic,Clinic,J&J,2021-06-28 00:00:00,Yes,5 days,40.0,-31.47298,28.90907,Nyandeni,O.R.Tambo,DC15
100,100,O Tambo DM,Nyandeni LM,ec Cwele Clinic,Clinic,J&J,2021-07-20 00:00:00,To start next week,5 days,40.0,-31.67176,29.24012,Nyandeni,O.R.Tambo,DC15
101,101,O Tambo DM,Nyandeni LM,ec Maqanyeni Clinic,Clinic,J&J,2021-07-20 00:00:00,To start next week,5 days,40.0,-28.996320724487305,25.087142944335938,Nyandeni,O.R.Tambo,DC15
102,102,O Tambo DM,Nyandeni LM,ec Nyandeni Clinic,Clinic,J&J,2021-07-20 00:00:00,To start next week,5 days,40.0,-31.47298,28.90907,Nyandeni,O.R.Tambo,DC15
103,103,O Tambo DM,Nyandeni LM,ec Double Falls Clinic,Clinic,J&J,2021-06-07 00:00:00,Yes,5 days,40.0,-31.59783,28.81343,Nyandeni,O.R.Tambo,DC15
104,104,O Tambo DM,Nyandeni LM,ec Mangcwanguleni Clinic,Clinic,J&J,2021-07-20 00:00:00,To start next week,5 days,40.0,-28.996320724487305,25.087142944335938,Nyandeni,O.R.Tambo,DC15
105,105,O Tambo DM,Ingquza Hill LM,ec St Elizabeth's Gateway Clinic,Clinic,J&J,2021-07-05 00:00:00,Yes,5 days,40.0,-31.37272,29.59841,Ngquza Hill,O.R.Tambo,DC15
106,106,O Tambo DM,Ingquza Hill LM,ec Lusikisiki Village Clinic (Qaukeni),Clinic,J&J,2021-07-05 00:00:00,Yes,5 days,40.0,-28.996320724487305,25.087142944335938,Ngquza Hill,O.R.Tambo,DC15
107,107,O Tambo DM,Port St Johns LM,ec Mzintlava Clinic,Clinic,J&J,2021-07-20 00:00:00,To start next week,5 days,40.0,-31.62244,29.54541,Port St Johns,O.R.Tambo,DC15
108,108,O Tambo DM,Ingquza Hill LM,ec Palmerton Clinic,Clinic,J&J,2021-07-05 00:00:00,Yes,5 days,40.0,-31.32081,29.48743,Ngquza Hill,O.R.Tambo,DC15
109,109,O Tambo DM,Ingquza Hill LM,ec Magwa Clinic,Clinic,J&J,2021-07-19 00:00:00,To start next week,5 days,40.0,-28.996320724487305,25.087142944335938,Ngquza Hill,O.R.Tambo,DC15
110,110,O Tambo DM,Ingquza Hill LM,ec KTC Clinic,Clinic,J&J,2021-07-05 00:00:00,Yes,5 days,40.0,-28.996320724487305,25.087142944335938,Ngquza Hill,O.R.Tambo,DC15
111,111,O Tambo DM,Ingquza Hill LM,ec Mpoza Clinic (Lusikisiki),Clinic,J&J,2021-07-05 00:00:00,Yes,5 days,40.0,-28.996320724487305,25.087142944335938,Ngquza Hill,O.R.Tambo,DC15
112,112,O Tambo DM,Ingquza Hill LM,ec Malangeni Clinic,Clinic,J&J,2021-07-19 00:00:00,To start next week,5 days,40.0,-28.996320724487305,25.087142944335938,Ngquza Hill,O.R.Tambo,DC15
113,113,O Tambo DM,Ingquza Hill LM,ec Xurana Clinic,Clinic,J&J,2021-07-19 00:00:00,To start next week,5 days,40.0,-28.996320724487305,25.087142944335938,Ngquza Hill,O.R.Tambo,DC15
114,114,O Tambo DM,Port St Johns LM,ec Buchele Clinic,Clinic,J&J,2021-07-20 00:00:00,To start next week,5 days,40.0,-31.62244,29.54541,Port St Johns,O.R.Tambo,DC15
115,115,O Tambo DM,Ingquza Hill LM,ec Mbotyi Clinic,Clinic,J&J,2021-07-19 00:00:00,To start next week,5 days,40.0,-28.996320724487305,25.087142944335938,Ngquza Hill,O.R.Tambo,DC15
116,116,O Tambo DM,Ingquza Hill LM,ec Khanyayo (Holy Cross) Clinic,Clinic,J&J,2021-07-05 00:00:00,Yes,5 days,40.0,-31.14729,29.67526,Ngquza Hill,O.R.Tambo,DC15
117,117,Joe Gqabi DM,Walter Sisulu LM,ec Poly Clinic,Clinic,J&J,2021-05-17 00:00:00,Yes,5 days,80.0,-30.6953,25.77361,Walter Sisulu,Joe Gqabi,DC14
118,118,Joe Gqabi DM,Walter Sisulu LM,ec Aliwal North Block H Clinic,Clinic,J&J,2021-06-09 00:00:00,Yes,5 days,80.0,-28.996320724487305,25.087142944335938,Walter Sisulu,Joe Gqabi,DC14
119,119,O Tambo DM,Mhlontlo LM,ec St Lucy's Gateway Clinic,Clinic,J&J,2021-07-20 00:00:00,To start next week,5 days,40.0,-31.30972,28.64091,Mhlontlo,O.R.Tambo,DC15
120,120,O Tambo DM,Mhlontlo LM,ec Ezingcuka Clinic,Clinic,J&J,2021-07-20 00:00:00,To start next week,5 days,40.0,-31.16141,28.86828,Mhlontlo,O.R.Tambo,DC15
121,121,Joe Gqabi DM,Elundini LM,ec St Augustine's Clinic,Clinic,J&J,2021-07-19 00:00:00,Active on 19th,5 days,80.0,-31.22309,28.59591,Elundini,Joe Gqabi,DC14
122,122,O Tambo DM,Mhlontlo LM,ec Langeni Clinic,Clinic,J&J,2021-06-23 00:00:00,Yes,5 days,40.0,-31.47555,28.46518,Mhlontlo,O.R.Tambo,DC15
123,123,Joe Gqabi DM,Elundini LM,ec Ngxaza Clinic,Clinic,J&J,2021-07-19 00:00:00,Active on 19th,5 days,80.0,-31.17761,28.50244,Elundini,Joe Gqabi,DC14
124,124,O Tambo DM,Mhlontlo LM,ec Mjika Clinic,Clinic,J&J,2021-06-23 00:00:00,Yes,5 days,40.0,-31.43422,28.63441,Mhlontlo,O.R.Tambo,DC15
125,125,O Tambo DM,Mhlontlo LM,ec Mhlahlane Clinic,Clinic,J&J,2021-07-20 00:00:00,To start next week,5 days,40.0,-31.42196,28.54524,Mhlontlo,O.R.Tambo,DC15
126,126,Joe Gqabi DM,Elundini LM,ec Queen Noti Clinic,Clinic,J&J,2021-07-09 00:00:00,Yes,5 days,80.0,-31.16595,28.48448,Elundini,Joe Gqabi,DC14
127,127,Joe Gqabi DM,Elundini LM,ec Ncembu Clinic,Clinic,J&J,2021-07-19 00:00:00,Active on 19th,5 days,80.0,-31.39383,28.4043,Elundini,Joe Gqabi,DC14
128,128,Joe Gqabi DM,Elundini LM,ec Umnga Flats Clinic,Clinic,J&J,2021-07-19 00:00:00,Active on 19th,5 days,80.0,-31.43602,28.36907,Elundini,Joe Gqabi,DC14
129,129,C Hani DM,Engcobo LM,ec Mgudu Clinic,Clinic,Pfizer,2021-07-26 00:00:00,To start next week,5 days,80.0,-31.78672,28.28697,Engcobo,Chris Hani,DC13
130,130,A Nzo DM,Mbizana LM,ec St Patrick's Gateway Clinic,Clinic,Pfizer,2021-07-19 00:00:00,To start next week,5 days,40.0,-33.95533,25.61262,Mbizana,Alfred Nzo,DC44
131,131,A Nzo DM,Mbizana LM,ec Qasa Clinic,Clinic,J&J,2021-07-26 00:00:00,To start next week,5 days,40.0,-31.27477,29.30239,Mbizana,Alfred Nzo,DC44
132,132,A Nzo DM,Mbizana LM,ec Imizizi Clinic,Clinic,J&J,2021-07-26 00:00:00,To start next week,5 days,40.0,-31.92743,27.34241,Mbizana,Alfred Nzo,DC44
133,133,A Nzo DM,Mbizana LM,ec Tsawana Clinic,Clinic,J&J,2021-07-19 00:00:00,To start next week,5 days,40.0,-30.80695,29.91313,Mbizana,Alfred Nzo,DC44
134,134,A Nzo DM,Mbizana LM,ec Isikelo Clinic,Clinic,J&J,2021-07-19 00:00:00,To start next week,5 days,40.0,-31.92743,27.34241,Mbizana,Alfred Nzo,DC44
135,135,A Nzo DM,Mbizana LM,ec Hlamandana Clinic,Clinic,J&J,2021-07-26 00:00:00,To start next week,5 days,40.0,-31.92743,27.34241,Mbizana,Alfred Nzo,DC44
136,136,A Nzo DM,Mbizana LM,ec Mpetsheni Clinic,Clinic,J&J,2021-07-26 00:00:00,To start next week,5 days,40.0,-31.92743,27.34241,Mbizana,Alfred Nzo,DC44
137,137,A Nzo DM,Mbizana LM,ec Ndela Clinic,Clinic,J&J,2021-07-26 00:00:00,To start next week,5 days,40.0,-32.20634,28.15084,Mbizana,Alfred Nzo,DC44
138,138,A Nzo DM,Mbizana LM,ec Qobo Clinic,Clinic,J&J,2021-07-26 00:00:00,To start next week,5 days,40.0,-33.80485,25.36641,Mbizana,Alfred Nzo,DC44
139,139,A Nzo DM,Mbizana LM,ec Mfundambini Clinic,Clinic,J&J,2021-07-26 00:00:00,To start next week,5 days,40.0,-30.93544,29.67993,Mbizana,Alfred Nzo,DC44
140,140,A Nzo DM,Mbizana LM,ec Meje Clinic,Clinic,J&J,2021-07-26 00:00:00,To start next week,5 days,40.0,-28.996320724487305,25.087142944335938,Mbizana,Alfred Nzo,DC44
141,141,A Nzo DM,Mbizana LM,ec Kanyayo (Bizana) Clinic,Clinic,J&J,2021-07-26 00:00:00,To start next week,5 days,40.0,-31.59305,29.37829,Mbizana,Alfred Nzo,DC44
142,142,A Nzo DM,Mbizana LM,ec Daliwonga Clinic,Clinic,J&J,2021-07-26 00:00:00,To start next week,5 days,40.0,-31.91919,26.95343,Mbizana,Alfred Nzo,DC44
143,143,A Nzo DM,Mbizana LM,ec Amandengane Clinic,Clinic,J&J,2021-07-26 00:00:00,To start next week,5 days,40.0,-31.92743,27.34241,Mbizana,Alfred Nzo,DC44
144,144,C Hani DM,Enoch Mgijima LM,ec Sterkstroom Clinic,Clinic,Pfizer,2021-07-12 00:00:00,Yes,5 days,80.0,-31.90713,26.96298,Enoch Mgijima,Chris Hani,DC13
145,145,C Hani DM,Enoch Mgijima LM,ec Masakhe Clinic,Clinic,Pfizer,2021-07-26 00:00:00,To start next week,5 days,80.0,-31.55635,26.56797,Enoch Mgijima,Chris Hani,DC13
146,146,Joe Gqabi DM,Walter Sisulu LM,ec Khayamnandi Clinic,Clinic,J&J,2021-05-25 00:00:00,Yes,5 days,80.0,-30.6953,25.77361,Walter Sisulu,Joe Gqabi,DC14
147,147,C Hani DM,Enoch Mgijima LM,ec Eluxolweni Clinic,Clinic,Pfizer,2021-07-26 00:00:00,To start next week,5 days,80.0,-32.161,26.5943,Enoch Mgijima,Chris Hani,DC13
148,148,C Hani DM,Enoch Mgijima LM,ec Hofmeyer Clinic,Clinic,Pfizer,2021-07-19 00:00:00,To start next week,5 days,80.0,-31.90713,26.96298,Enoch Mgijima,Chris Hani,DC13
149,149,Joe Gqabi DM,Walter Sisulu LM,ec Venterstad Clinic,Clinic,J&J,2021-05-26 00:00:00,Yes,5 days,80.0,-30.77621,25.79941,Walter Sisulu,Joe Gqabi,DC14
150,150,Amathole DM,Mbhashe LM,ec Nyhwara Clinic,Clinic,J&J,2021-06-13 00:00:00,Yes,5 days,40.0,-31.9588,28.35053,Mbhashe,Amathole,DC12
151,151,Amathole DM,Ngqushwa LM,ec Peddie Extension Clinic,Clinic,J&J,2021-06-15 00:00:00,Yes,5 days,40.0,-28.996320724487305,25.087142944335938,Ngqushwa,Amathole,DC12
152,152,Amathole DM,Raymond Mhlaba LM,ec Perksdale Clinic,Clinic,J&J,2021-07-09 00:00:00,Yes,5 days,40.0,-32.59419,26.93739,Raymond Mhlaba,Amathole,DC12
153,153,Amathole DM,Amahlathi LM,ec Philani Clinic (King William's Town),Clinic,J&J,2021-06-15 00:00:00,Yes,5 days,40.0,-32.90016,27.40769,Amahlathi,Amathole,DC12
154,154,Amathole DM,Ngqushwa LM,ec Pikholi Clinic,Clinic,J&J,2021-06-10 00:00:00,Yes,5 days,40.0,-28.996320724487305,25.087142944335938,Ngqushwa,Amathole,DC12
155,155,Sarah Baartman DM,Sundays River Valley LM,ec Kirkwood Clinic,Clinic,Pfizer,2020-07-05 00:00:00,Yes,5 days,80.0,-33.39787,25.48392,Sundays River Valley,Sarah Baartman,DC10
156,156,Sarah Baartman DM,Sundays River Valley LM,ec Bergsig Clinic,Clinic,Pfizer,2020-07-22 00:00:00,To start next week,5 days,80.0,-33.39787,25.48392,Sundays River Valley,Sarah Baartman,DC10
157,157,Sarah Baartman DM,Sundays River Valley LM,ec Moses Mabida Clinic,Clinic,Pfizer,2020-07-05 00:00:00,Yes,5 days,80.0,-33.39787,25.48392,Sundays River Valley,Sarah Baartman,DC10
158,158,Sarah Baartman DM,Sundays River Valley LM,ec Lukhanyiso Clinic,Clinic,Pfizer,2020-07-05 00:00:00,Yes,5 days,80.0,-33.39787,25.48392,Sundays River Valley,Sarah Baartman,DC10
159,159,Sarah Baartman DM,Sundays River Valley LM,ec Addo Clinic,Clinic,Pfizer,2020-07-05 00:00:00,Yes,5 days,80.0,-33.55397,25.70273,Sundays River Valley,Sarah Baartman,DC10
160,160,Sarah Baartman DM,Sundays River Valley LM,ec Kwazenzele Clinic,Clinic,Pfizer,2020-07-05 00:00:00,Yes,5 days,80.0,-33.44611,25.97279,Sundays River Valley,Sarah Baartman,DC10
161,161,Amathole DM,Raymond Mhlaba LM,ec Qibira Clinic,Clinic,J&J,2021-07-21 00:00:00,To start next week,5 days,40.0,-32.94255,27.03404,Raymond Mhlaba,Amathole,DC12
162,162,Amathole DM,Mnquma LM,ec Qina Clinic,Clinic,J&J,2020-07-07 00:00:00,Yes,5 days,40.0,-32.44535,28.2078,Mnquma,Amathole,DC12
163,163,Amathole DM,Mbhashe LM,ec Qwaninga Clinic,Clinic,J&J,2021-07-25 00:00:00,To start next week,5 days,40.0,-32.36541,28.57297,Mbhashe,Amathole,DC12
164,164,Amathole DM,Amahlathi LM,ec Rabula Clinic,Clinic,J&J,2021-06-22 00:00:00,Yes,5 days,40.0,-32.78699,27.1729,Amahlathi,Amathole,DC12
165,165,O Tambo DM,King Sabata Dalindyebo LM,ec Centuli Clinic,Clinic,J&J,2021-06-16 00:00:00,Yes,5 days,40.0,-31.6878,28.55425,King Sabata Dalindyebo,O.R.Tambo,DC15
166,166,Amathole DM,Ngqushwa LM,ec Robert Mbelekana Clinic,Clinic,J&J,2021-06-10 00:00:00,Yes,5 days,40.0,-33.31734,27.34098,Ngqushwa,Amathole,DC12
167,167,Amathole DM,Raymond Mhlaba LM,ec Rwarwa Clinic,Clinic,J&J,2021-07-21 00:00:00,To start next week,5 days,40.0,-32.74435,26.90895,Raymond Mhlaba,Amathole,DC12
168,168,Amathole DM,Raymond Mhlaba LM,ec Sheshegu Clinic,Clinic,J&J,2021-07-22 00:00:00,To start next week,5 days,40.0,-32.9129,26.82104,Raymond Mhlaba,Amathole,DC12
169,169,Amathole DM,Mbhashe LM,ec Soga Clinic,Clinic,J&J,2021-07-01 00:00:00,Yes,5 days,40.0,-32.14504,28.41468,Mbhashe,Amathole,DC12
170,170,Amathole DM,Great Kei LM,ec Soto Clinic,Clinic,J&J,2021-06-07 00:00:00,Yes,5 days,40.0,-32.69251,28.12752,Great Kei,Amathole,DC12
171,171,Amathole DM,Amahlathi LM,ec St Matthew's Clinic,Clinic,J&J,2020-07-02 00:00:00,Yes,5 days,40.0,-32.65709,27.17701,Amahlathi,Amathole,DC12
172,172,Amathole DM,Amahlathi LM,ec Stutterheim Clinic,Clinic,J&J,2020-07-26 00:00:00,To start next week,5 days,40.0,-28.996320724487305,25.087142944335938,Amahlathi,Amathole,DC12
173,173,Amathole DM,Mbhashe LM,ec Sundwana Clinic,Clinic,J&J,2021-07-19 00:00:00,To start next week,5 days,40.0,-32.14504,28.41468,Mbhashe,Amathole,DC12
174,174,Joe Gqabi DM,Elundini LM,ec Bethania Clinic,Clinic,J&J,2021-07-19 00:00:00,Active on 19th,5 days,80.0,-30.65814,28.30163,Elundini,Joe Gqabi,DC14
175,175,Joe Gqabi DM,Elundini LM,ec Seqhobong Clinic,Clinic,J&J,2021-07-19 00:00:00,Active on 19th,5 days,80.0,-30.43405,28.42265,Elundini,Joe Gqabi,DC14
176,176,Joe Gqabi DM,Elundini LM,ec Tayler Bequest Gateway Clinic (Elundini),Clinic,J&J,2021-07-19 00:00:00,Active on 19th,5 days,80.0,-31.16595,28.48448,Elundini,Joe Gqabi,DC14
177,177,Joe Gqabi DM,Elundini LM,ec Ulundi Clinic,Clinic,J&J,2021-07-19 00:00:00,Electricity problems,5 days,80.0,-30.6354,28.22574,Elundini,Joe Gqabi,DC14
178,178,A Nzo DM,Matatiele LM,ec Isilindini Clinic,Clinic,J&J,2021-07-26 00:00:00,To start next week,5 days,40.0,-28.996320724487305,25.087142944335938,Matatiele,Alfred Nzo,DC44
179,179,A Nzo DM,Matatiele LM,ec Umtumase Clinic,Clinic,J&J,2021-07-26 00:00:00,To start next week,5 days,40.0,-28.996320724487305,25.087142944335938,Matatiele,Alfred Nzo,DC44
180,180,Joe Gqabi DM,Elundini LM,ec Kungisizwe Clinic,Clinic,J&J,2021-07-19 00:00:00,Active on 19th,5 days,80.0,-31.16595,28.48448,Elundini,Joe Gqabi,DC14
181,181,Joe Gqabi DM,Elundini LM,ec Mangoloaneng Clinic,Clinic,J&J,2021-07-09 00:00:00,Yes,5 days,80.0,-30.52184,28.45742,Elundini,Joe Gqabi,DC14
182,182,A Nzo DM,Umzimvubu LM,ec Machibini Clinic (Kwabhaca),Clinic,J&J,2021-07-26 00:00:00,To start next week,5 days,40.0,-30.72751,28.72292,Umzimvubu,Alfred Nzo,DC44
183,183,A Nzo DM,Umzimvubu LM,ec Luyengweni Clinic,Clinic,J&J,2021-07-30 00:00:00,To start next week,5 days,40.0,-30.63449,28.77777,Umzimvubu,Alfred Nzo,DC44
184,184,A Nzo DM,Matatiele LM,ec Paballong Clinic,Clinic,J&J,2021-07-26 00:00:00,To start next week,5 days,40.0,-28.996320724487305,25.087142944335938,Matatiele,Alfred Nzo,DC44
185,185,Joe Gqabi DM,Elundini LM,ec Lower Tsitsana Clinic,Clinic,J&J,2021-07-19 00:00:00,Active on 19th,5 days,80.0,-28.996320724487305,25.087142944335938,Elundini,Joe Gqabi,DC14
186,186,A Nzo DM,Matatiele LM,ec Thabachicha Clinic,Clinic,J&J,2021-07-26 00:00:00,To start next week,5 days,40.0,-28.996320724487305,25.087142944335938,Matatiele,Alfred Nzo,DC44
187,187,A Nzo DM,Matatiele LM,ec Magadla Clinic,Clinic,J&J,2021-07-26 00:00:00,To start next week,5 days,40.0,-30.25465,28.71224,Matatiele,Alfred Nzo,DC44
188,188,A Nzo DM,Matatiele LM,ec Shepherds Hope Clinic,Clinic,J&J,2021-07-19 00:00:00,To start next week,5 days,40.0,-30.56183,28.67929,Matatiele,Alfred Nzo,DC44
189,189,A Nzo DM,Matatiele LM,ec Afsondering Clinic,Clinic,J&J,2021-07-26 00:00:00,To start next week,5 days,40.0,-28.996320724487305,25.087142944335938,Matatiele,Alfred Nzo,DC44
190,190,A Nzo DM,Matatiele LM,ec Queen's Mercy Clinic,Clinic,J&J,2021-07-26 00:00:00,To start next week,5 days,40.0,-30.26245,28.54629,Matatiele,Alfred Nzo,DC44
191,191,A Nzo DM,Matatiele LM,ec Likhetlane Clinic,Clinic,J&J,2021-07-26 00:00:00,To start next week,5 days,40.0,-28.996320724487305,25.087142944335938,Matatiele,Alfred Nzo,DC44
192,192,A Nzo DM,Matatiele LM,ec Madlangala Clinic,Clinic,J&J,2021-07-26 00:00:00,To start next week,5 days,40.0,-28.996320724487305,25.087142944335938,Matatiele,Alfred Nzo,DC44
193,193,A Nzo DM,Matatiele LM,ec Mzongwana Clinic,Clinic,J&J,2021-07-19 00:00:00,To start next week,5 days,40.0,-28.996320724487305,25.087142944335938,Matatiele,Alfred Nzo,DC44
194,194,A Nzo DM,Matatiele LM,ec Mpharane Clinic,Clinic,J&J,2021-07-26 00:00:00,To start next week,5 days,40.0,-28.996320724487305,25.087142944335938,Matatiele,Alfred Nzo,DC44
195,195,Joe Gqabi DM,Senqu LM,ec Umlamli Gateway Clinic,Clinic,J&J,2021-07-19 00:00:00,To start next week,5 days,80.0,-30.55225,27.45792,Senqu,Joe Gqabi,DC14
196,196,Joe Gqabi DM,Senqu LM,ec Hillside Clinic (Senqu),Clinic,J&J,2021-07-05 00:00:00,Yes,5 days,80.0,-30.56225,27.57666,Senqu,Joe Gqabi,DC14
197,197,Joe Gqabi DM,Senqu LM,ec Musong Clinic,Clinic,J&J,2021-07-29 00:00:00,To start next week,5 days,80.0,-28.996320724487305,25.087142944335938,Senqu,Joe Gqabi,DC14
198,198,Joe Gqabi DM,Senqu LM,ec Pelandaba Clinic,Clinic,J&J,2021-07-12 00:00:00,Yes,5 days,80.0,-30.64205,27.56043,Senqu,Joe Gqabi,DC14
199,199,Joe Gqabi DM,Senqu LM,ec Palmietfontein Clinic,Clinic,J&J,2021-06-28 00:00:00,Yes,5 days,80.0,-28.996320724487305,25.087142944335938,Senqu,Joe Gqabi,DC14
200,200,Amathole DM,Mbhashe LM,ec Taleni Clinic,Clinic,J&J,2021-07-13 00:00:00,Yes,5 days,40.0,-28.996320724487305,25.087142944335938,Mbhashe,Amathole,DC12
201,201,Amathole DM,Raymond Mhlaba LM,ec Thozamile Madakana Clinic,Clinic,J&J,2021-07-27 00:00:00,To start next week,5 days,40.0,-32.59419,26.93739,Raymond Mhlaba,Amathole,DC12
202,202,Amathole DM,Ngqushwa LM,ec Tyata Clinic,Clinic,J&J,2021-06-17 00:00:00,Yes,5 days,40.0,-33.07357,27.36097,Ngqushwa,Amathole,DC12
203,203,Amathole DM,Raymond Mhlaba LM,ec Upper Ncera Clinic,Clinic,J&J,2021-07-20 00:00:00,To start next week,5 days,40.0,-32.75609,26.92199,Raymond Mhlaba,Amathole,DC12
204,204,Amathole DM,Mbhashe LM,ec Vukukhanye Gateway Clinic,Clinic,J&J,2021-06-21 00:00:00,Yes,5 days,40.0,-32.14504,28.41468,Mbhashe,Amathole,DC12
205,205,Amathole DM,Raymond Mhlaba LM,ec War Memorial Clinic,Clinic,J&J,2021-07-26 00:00:00,To start next week,5 days,40.0,-32.59419,26.93739,Raymond Mhlaba,Amathole,DC12
206,206,Amathole DM,Amahlathi LM,ec Wartburg Clinic,Clinic,J&J,2020-07-26 00:00:00,To start next week,5 days,40.0,-28.996320724487305,25.087142944335938,Amahlathi,Amathole,DC12
207,207,Amathole DM,Raymond Mhlaba LM,ec Washington Clinic,Clinic,J&J,2021-06-07 00:00:00,Yes,5 days,40.0,-32.59419,26.93739,Raymond Mhlaba,Amathole,DC12
208,208,Amathole DM,Ngqushwa LM,ec Wesley Clinic,Clinic,J&J,2021-06-09 00:00:00,Yes,5 days,40.0,-33.31734,27.34098,Ngqushwa,Amathole,DC12
209,209,Amathole DM,Amahlathi LM,ec Zalara Clinic,Clinic,J&J,2020-07-09 00:00:00,Yes,5 days,40.0,-28.996320724487305,25.087142944335938,Amahlathi,Amathole,DC12
210,210,Amathole DM,Mnquma LM,ec Zazulwana Clinic,Clinic,J&J,2020-07-15 00:00:00,Yes,5 days,40.0,-32.50866,28.31928,Mnquma,Amathole,DC12
211,211,N Mandela Bay MM,N Mandela B SD,ec Masakhane Clinic (N Mandela Metro),Clinic,Pfizer,2021-06-22 00:00:00,Yes,5 days,80.0,-34.01584,18.65367,Nelson Mandela Bay,Nelson Mandela Bay,NMA
212,212,C Hani DM,Inxuba Yethemba LM,ec Middelburg Clinic,Clinic,Pfizer,2021-07-26 00:00:00,To start next week,5 days,80.0,-31.50884,25.02546,Inxuba Yethemba,Chris Hani,DC13
213,213,C Hani DM,Inxuba Yethemba LM,ec Kwanonzame New Clinic,Clinic,Pfizer,2021-07-26 00:00:00,To start next week,5 days,80.0,-28.996320724487305,25.087142944335938,Inxuba Yethemba,Chris Hani,DC13
214,214,C Hani DM,Inxuba Yethemba LM,ec Kwanonzame Old Clinic,Clinic,Pfizer,2021-07-26 00:00:00,To start next week,5 days,80.0,-28.996320724487305,25.087142944335938,Inxuba Yethemba,Chris Hani,DC13
215,215,C Hani DM,Inxuba Yethemba LM,ec Midros Clinic,Clinic,Pfizer,2021-07-26 00:00:00,To start next week,5 days,80.0,-31.51216,25.00748,Inxuba Yethemba,Chris Hani,DC13
216,216,Sarah Baartman DM,Dr B NaudÂ‚ LM,ec Willowmore Clinic,Clinic,J&J,2020-07-22 00:00:00,To start next week,5 days,80.0,-33.3272,24.34468,Dr Beyers Naude,Sarah Baartman,DC10
217,217,Sarah Baartman DM,Dr B NaudÂ‚ LM,ec Rietbron Clinic,Clinic,J&J,2020-07-22 00:00:00,To start next week,5 days,80.0,-32.90027,23.15129,Dr Beyers Naude,Sarah Baartman,DC10
218,218,Sarah Baartman DM,Kou-Kamma LM,ec Misgund Clinic,Clinic,Pfizer,2020-07-22 00:00:00,To start next week,5 days,80.0,-33.82128,23.85373,Kou-Kamma,Sarah Baartman,DC10
219,219,Sarah Baartman DM,Kou-Kamma LM,ec Louterwater Clinic,Clinic,J&J,2020-07-22 00:00:00,To start next week,5 days,80.0,-33.78986,23.63106,Kou-Kamma,Sarah Baartman,DC10
220,220,Sarah Baartman DM,Kou-Kamma LM,ec Krakeel Clinic,Clinic,J&J,2020-07-22 00:00:00,To start next week,5 days,80.0,-33.81767,23.73516,Kou-Kamma,Sarah Baartman,DC10
221,221,O Tambo DM,King Sabata Dalindyebo LM,ec Zitulele Gateway Clinic,Clinic,J&J,2021-06-16 00:00:00,Yes,5 days,40.0,-31.73637,28.46856,King Sabata Dalindyebo,O.R.Tambo,DC15
222,222,O Tambo DM,King Sabata Dalindyebo LM,ec Nzulwini Clinic,Clinic,J&J,2021-07-19 00:00:00,To start next week,5 days,40.0,-31.73637,28.46856,King Sabata Dalindyebo,O.R.Tambo,DC15
223,223,Amathole DM,Raymond Mhlaba LM,ec Zigodlo Clinic,Clinic,J&J,2021-07-26 00:00:00,To start next week,5 days,40.0,-32.98034,27.0753,Raymond Mhlaba,Amathole,DC12
224,224,Amathole DM,Raymond Mhlaba LM,ec Zihlahleni Clinic,Clinic,J&J,2021-07-08 00:00:00,Yes,5 days,40.0,-32.8534,27.16862,Raymond Mhlaba,Amathole,DC12
225,225,O Tambo DM,King Sabata Dalindyebo LM,ec Zidindi Clinic,Clinic,J&J,2021-07-19 00:00:00,To start next week,5 days,40.0,-31.73637,28.46856,King Sabata Dalindyebo,O.R.Tambo,DC15
226,226,O Tambo DM,King Sabata Dalindyebo LM,ec Tshezi Clinic,Clinic,J&J,2021-07-19 00:00:00,To start next week,5 days,40.0,-31.73637,28.46856,King Sabata Dalindyebo,O.R.Tambo,DC15
227,227,O Tambo DM,King Sabata Dalindyebo LM,ec Mapuzi Clinic,Clinic,J&J,2021-07-19 00:00:00,To start next week,5 days,40.0,-31.73637,28.46856,King Sabata Dalindyebo,O.R.Tambo,DC15
228,228,Sarah Baartman DM,Kouga LM,ec Settlers day Hospital,Hospital,J&J,2021-07-09 00:00:00,Yes,5 days,,-34.16166,24.82708,Kouga,Sarah Baartman,DC10
229,0,Cape Town MM,CT Western SD,4 Dorp Street City Centre,Temporary Outreach Site,J&J,2021-07-01 00:00:00,yes,5 days,500,-33.87763,18.57683,,City of Cape Town,CPT
230,1,Cape Town MM,CT Western SD,Alexandra Hospital,Primary vaccination site,Pfizer,2021-07-06 00:00:00,yes,5 days,300,-34.1178,18.83311,,City of Cape Town,CPT
231,2,Cape Town MM,CT Khayelitsha SD,Andile MsiziCommunity Hall,Temporary Outreach Site,Pfizer,2021-01-07 00:00:00,yes,5 days,400,-34.06149,18.69097,,City of Cape Town,CPT
232,3,Cape Town MM,CT Mitch Plain SD,Beaconvale Frail Care Centre,Temporary Outreach Site,Pfizer,2021-05-31 00:00:00,yes,5 days,250,-34.0596,18.62563,,City of Cape Town,CPT
233,4,Cape Town MM,CT Tygerberg SD,Bishop Lavis CDC,Primary vaccination site,Pfizer,2021-05-31 00:00:00,yes,5 days,100,-33.94842,18.58113,,City of Cape Town,CPT
234,5,Cape Town MM,CT Northern SD,Bothasig CDC,Primary vaccination site,Pfizer,2021-05-24 00:00:00,yes,5 days,50,-28.996320724487305,25.087142944335938,,City of Cape Town,CPT
235,6,Cape Town MM,CT Western SD,Brooklyn Chest Hospital,Primary vaccination site,Pfizer,2021-05-17 00:00:00,yes,5 days,300,-34.1178,18.83311,,City of Cape Town,CPT
236,7,Cape Town MM,CT Tygerberg SD,CCT Adriaanse Clinic,Primary vaccination site,Pfizer,2021-05-24 00:00:00,yes,5 days,100,-33.94216,18.59054,,City of Cape Town,CPT
237,8,Cape Town MM,CT Northern SD,CCT Brackenfell Hall,Temporary Outreach site,Pfizer,2021-05-17 00:00:00,yes,5 days,300,-33.87454,18.71277,,City of Cape Town,CPT
238,9,Cape Town MM,CT Tygerberg SD,CCT Chestnut Satellite Clinic,Temporary Outreach site,Pfizer,2021-05-24 00:00:00,yes,4 days,100,-28.996320724487305,25.087142944335938,,City of Cape Town,CPT
239,10,Cape Town MM,CT Eastern SD,CCT Eerste River Clinic,Primary vaccination site,Pfizer,2021-05-24 00:00:00,yes,5 days,200,-28.996320724487305,25.087142944335938,,City of Cape Town,CPT
240,11,Cape Town MM,CT Eastern SD,CCT Ikhwezi CDC,Primary vaccination site,Pfizer,2021-06-02 00:00:00,yes,5 days,150,-33.82368,25.65671,,City of Cape Town,CPT
241,12,Cape Town MM,CT Khayelitsha SD,CCT Kuyasa Public Library,Temporary Outreach site,Pfizer,2021-05-24 00:00:00,yes,5 days,150,-28.996320724487305,25.087142944335938,,City of Cape Town,CPT
242,13,Cape Town MM,CT Southern SD,CCT Ocean View Civic Centre,Temporary Outreach site,Pfizer,2021-05-24 00:00:00,yes,5 days,100,-34.1471,18.35396,,City of Cape Town,CPT
243,14,Cape Town MM,CT Klipfontein SD,CCT Ruimte Road Satellite Clinic,Temporary Outreach site,Pfizer,2021-05-24 00:00:00,yes,5 days,100,-34.61116,19.3644,,City of Cape Town,CPT
244,15,Cape Town MM,CT Eastern SD,CCT Sarepta Clinic,Primary vaccination site,Pfizer,2021-06-03 00:00:00,yes,5 days,100,-33.82368,25.65671,,City of Cape Town,CPT
245,16,Cape Town MM,CT Eastern SD,CCT Sir Lowry's Pass CDC,Primary vaccination site,Pfizer,2021-06-02 00:00:00,yes,5 days,100,-34.1171,18.90908,,City of Cape Town,CPT
246,17,Cape Town MM,CT Mitch Plain SD,CCT Tafelsig Thusong Centre,Temporary Outreach site,Pfizer,2021-05-24 00:00:00,yes,5 days,100,-34.0596,18.62563,,City of Cape Town,CPT
247,18,Cape Town MM,CT Eastern SD,Charles Morkel Hall,Temporary Outreach site,Pfizer,2021-07-01 00:00:00,yes,5 days,200,-33.58986,26.90428,,City of Cape Town,CPT
248,19,Cape Town MM,CT Tygerberg SD,CPUT Bellville,Temporary Outreach Site,Pfizer,2021-07-06 00:00:00,yes,5 days,500,-33.84053,18.609,,City of Cape Town,CPT
249,20,Cape Town MM,CT Mitch Plain SD,Crossroads Hall,Temporary Outreach site,Pfizer,2021-07-05 00:00:00,yes,5 days,150,-34.0596,18.62563,,City of Cape Town,CPT
250,21,Cape Town MM,CT Western SD,CTICC Vaccination Centre of Hope,Fixed Outreach site,Pfizer,2021-07-07 00:00:00,yes,5 days,4000,-34.1024,18.82722,,City of Cape Town,CPT
251,22,Cape Town MM,CT Tygerberg SD,Delft CHC,Primary vaccination site,Pfizer,2021-05-24 00:00:00,yes,5 days,150,-34.08371,18.475,,City of Cape Town,CPT
252,23,Cape Town MM,CT Tygerberg SD,Disa Hall Tygerberg Hospital,Temporary Outreach Site,J&J,2021-09-06 00:00:00,yes,5 days,800,-28.996320724487305,25.087142944335938,,City of Cape Town,CPT
253,24,Cape Town MM,CT Western SD,District Six CDC,Primary vaccination site,Pfizer,2021-01-06 00:00:00,yes,5 days,120,-33.92817,18.42916,,City of Cape Town,CPT
254,25,Cape Town MM,CT Southern SD,Dominican Grimley School Hall,Temporary Outreach site,Pfizer,2021-06-09 00:00:00,yes,5 days,240,-26.2423,28.06741,,City of Cape Town,CPT
255,26,Cape Town MM,CT Southern SD,DP Marais Hospital,Primary vaccination site,Pfizer,2021-05-24 00:00:00,yes,5 days,350,-34.34086,19.00857,,City of Cape Town,CPT
256,27,Cape Town MM,CT Western SD,Du Noon CHC,Primary vaccination site,Pfizer,2021-06-01 00:00:00,yes,5 days,100,-34.09831,18.83443,,City of Cape Town,CPT
257,28,Cape Town MM,CT Northern SD,Durbanville CDC,Primary vaccination site,Pfizer,2021-05-24 00:00:00,yes,5 days,50,-28.996320724487305,25.087142944335938,,City of Cape Town,CPT
258,29,Cape Town MM,CT Eastern SD,Eerste River Hospital,Primary vaccination site,Pfizer,2021-06-07 00:00:00,yes,5 days,200,-33.39787,25.48392,,City of Cape Town,CPT
259,30,Cape Town MM,CT Tygerberg SD,Elsies River CHC,Primary vaccination site,Pfizer,2021-05-31 00:00:00,yes,5 days,150,-33.92454,18.5696,,City of Cape Town,CPT
260,31,Cape Town MM,CT Southern SD,False Bay Hospital,Primary vaccination site,Pfizer,2021-05-31 00:00:00,yes,5 days,240,-34.07973,18.51986,,City of Cape Town,CPT
261,32,Cape Town MM,CT Eastern SD,Garden Village Hall Somerset West,Temporary Outreach site,Pfizer,2021-07-12 00:00:00,yes,5 days,150,-34.08804,18.83882,,City of Cape Town,CPT
262,33,Cape Town MM,CT Tygerberg SD,Goodwood Hall,Temporary Outreach Site,Pfizer,2021-07-02 00:00:00,yes,5 days,500,-33.87304,18.53665,,City of Cape Town,CPT
263,34,Cape Town MM,CT Klipfontein SD,Gugulethu CHC,Primary vaccination site,Pfizer,2021-05-31 00:00:00,yes,6 days,50,-34.61298,19.36874,,City of Cape Town,CPT
264,35,Cape Town MM,CT Eastern SD,Gustrouw CDC,Primary vaccination site,Pfizer,2021-05-31 00:00:00,yes,5 days,150,-34.13267,18.86632,,City of Cape Town,CPT
265,36,Cape Town MM,CT Klipfontein SD,Hanover Park CDC,Primary vaccination site,Pfizer,2021-05-17 00:00:00,yes,5 days,150,-33.9946,18.52763,,City of Cape Town,CPT
266,37,Cape Town MM,CT Klipfontein SD,Heideveld CHC,Primary vaccination site,Pfizer,2021-05-17 00:00:00,yes,5 days,50,-34.61298,19.36874,,City of Cape Town,CPT
267,38,Cape Town MM,CT Eastern SD,Helderberg Hospital,Primary vaccination site,Pfizer,2021-05-17 00:00:00,yes,5 days,200,-34.12744,18.85605,,City of Cape Town,CPT
268,39,Cape Town MM,CT Western SD,Hope Street Dental,Temporary Outreach Site,Pfizer,2021-05-24 00:00:00,yes,5 days,200,-34.1024,18.82722,,City of Cape Town,CPT
269,40,Cape Town MM,CT Klipfontein SD,Ikhwezi Community Hall,Temporary Outreach Site,Pfizer,2021-05-07 00:00:00,yes,5 days,200,-29.57958,30.38882,,City of Cape Town,CPT
270,41,Cape Town MM,CT Mitch Plain SD,Inzama Zabantu CDC,Primary vaccination site,Pfizer,2021-05-17 00:00:00,yes,5 days,100,-28.996320724487305,25.087142944335938,,City of Cape Town,CPT
271,42,Cape Town MM,CT Tygerberg SD,Karl Bremer Hospital,Primary vaccination site,Pfizer,2021-05-17 00:00:00,yes,5 days,200,-27.99063,26.75325,,City of Cape Town,CPT
272,43,Cape Town MM,CT Western SD,Kensington CDC,Primary vaccination site,Pfizer,2021-06-01 00:00:00,yes,5 days,100,-34.1178,18.83311,,City of Cape Town,CPT
273,44,Cape Town MM,CT Klipfontein SD,Kewtown New Apostolic Church,Temporary Outreach Site,Pfizer,2021-05-17 00:00:00,yes,5 days,150,-28.996320724487305,25.087142944335938,,City of Cape Town,CPT
274,45,Cape Town MM,CT Khayelitsha SD,Khayelitsha (Site B) CHC,Primary vaccination site,Pfizer,2021-05-24 00:00:00,yes,5 days,100,-34.03991,18.68345,,City of Cape Town,CPT
275,46,Cape Town MM,CT Khayelitsha SD,Khayelitsha Hospital,Primary vaccination site,Pfizer,2021-02-17 00:00:00,yes,5 days,200,-34.04946,18.64817,,City of Cape Town,CPT
276,47,Cape Town MM,CT Eastern SD,Kleinvlei CDC,Primary vaccination site,Pfizer,2021-05-24 00:00:00,yes,5 days,100,-33.82368,25.65671,,City of Cape Town,CPT
277,48,Cape Town MM,CT Eastern SD,Kleinvlei Recreational Hall,Temporary Outreach site,Pfizer,2021-07-01 00:00:00,yes,5 days,400,-33.58986,26.90428,,City of Cape Town,CPT
278,49,Cape Town MM,CT Southern SD,Lady Michaelis CDC,Primary vaccination site,Pfizer,2021-05-27 00:00:00,yes,5 days,210,-34.13837,18.85603,,City of Cape Town,CPT
279,50,Cape Town MM,CT Southern SD,Lansdowne Library Hall,Temporary Outreach site,Pfizer,2021-05-24 00:00:00,yes,5 days,100,-34.13837,18.85603,,City of Cape Town,CPT
280,51,Cape Town MM,CT Mitch Plain SD,Lentegeur Hospital Hall,Temporary Outreach Site,Pfizer,2021-05-17 00:00:00,yes,5 days,750,-28.996320724487305,25.087142944335938,,City of Cape Town,CPT
281,52,Cape Town MM,CT Southern SD,Lotus River CDC,Primary vaccination site,Pfizer,2021-05-25 00:00:00,yes,5 days,140,-34.02654,18.50904,,City of Cape Town,CPT
282,53,Cape Town MM,CT Eastern SD,Macassar CDC,Primary vaccination site,Pfizer,2021-05-31 00:00:00,yes,5 days,100,-33.82368,25.65671,,City of Cape Town,CPT
283,54,Cape Town MM,CT Eastern SD,Macassar New Civic,Temporary Outreach site,Pfizer,2021-07-05 00:00:00,yes,5 days,200,-28.996320724487305,25.087142944335938,,City of Cape Town,CPT
284,55,Cape Town MM,CT Western SD,Mamre CDC,Primary vaccination site,Pfizer,2021-05-28 00:00:00,yes,5 days,140,-34.1178,18.83311,,City of Cape Town,CPT
285,56,Cape Town MM,CT Eastern SD,Mfuleni CDC,Primary vaccination site,Pfizer,2021-05-31 00:00:00,yes,5 days,100,-33.82368,25.65671,,City of Cape Town,CPT
286,57,Cape Town MM,CT Khayelitsha SD,Michael Mapongwana CDC,Primary vaccination site,Pfizer,2021-05-24 00:00:00,yes,5 days,150,-34.04659,18.69225,,City of Cape Town,CPT
287,58,Cape Town MM,CT Mitch Plain SD,Mitchells Plain CHC,Primary vaccination site,Pfizer,2021-05-17 00:00:00,yes,6 days,50,-34.04589,18.61943,,City of Cape Town,CPT
288,59,Cape Town MM,CT Klipfontein SD,New Apostolic Church,Temporary Outreach Site,Pfizer,2021-05-31 00:00:00,yes,5 days,200,-34.61298,19.36874,,City of Cape Town,CPT
289,60,Cape Town MM,CT Western SD,New Somerset Hospital,Primary vaccination site,Pfizer,2021-05-24 00:00:00,yes,5 days,200,-34.05767,18.75731,,City of Cape Town,CPT
290,61,Cape Town MM,CT Khayelitsha SD,Nolungile CDC,Primary vaccination site,Pfizer,2021-05-24 00:00:00,yes,5 days,50,-28.996320724487305,25.087142944335938,,City of Cape Town,CPT
291,62,Cape Town MM,CT Eastern SD,Nomzamo CDC,Primary vaccination site,Pfizer,2021-05-31 00:00:00,yes,5 days,30,-33.82368,25.65671,,City of Cape Town,CPT
292,63,Cape Town MM,CT Eastern SD,Nomzamo Community Hall,Temporary Outreach site,Pfizer,2021-07-01 00:00:00,yes,2 days,200,-33.58986,26.90428,,City of Cape Town,CPT
293,64,Cape Town MM,CT Klipfontein SD,Nyanga CDC,Primary vaccination site,Pfizer,2021-05-17 00:00:00,yes,5 days,150,-34.61298,19.36874,,City of Cape Town,CPT
294,65,Cape Town MM,CT Tygerberg SD,Ravensmead CDC,Primary vaccination site,Pfizer,2021-05-31 00:00:00,yes,5 days,50,-28.996320724487305,25.087142944335938,,City of Cape Town,CPT
295,66,Cape Town MM,CT Tygerberg SD,Reed Street CDC,Primary vaccination site,Pfizer,2021-05-24 00:00:00,yes,5 days,50,-33.90383,18.63436,,City of Cape Town,CPT
296,67,Cape Town MM,CT Southern SD,Retreat CHC,Primary vaccination site,Pfizer,2021-06-03 00:00:00,yes,5 days,240,-34.13837,18.85603,,City of Cape Town,CPT
297,68,Cape Town MM,CT Western SD,Saxonsea Community Hall,Temporary Outreach Site,Pfizer,2021-07-06 00:00:00,yes,5 days,250,-34.11131,18.82424,,City of Cape Town,CPT
298,69,Cape Town MM,CT Northern SD,Scottsdene CDC,Primary vaccination site,Pfizer,2021-05-24 00:00:00,yes,5 days,50,-33.86011,18.72182,,City of Cape Town,CPT
299,70,Cape Town MM,CT Khayelitsha SD,Solomon Tshuku Hall,Temporary Outreach Site,Pfizer,2021-07-01 00:00:00,yes,5 days,300,-34.01353,18.64666,,City of Cape Town,CPT
300,71,Cape Town MM,CT Eastern SD,Somerset West Civic - Town Hall,Temporary Outreach site,Pfizer,2021-07-12 00:00:00,yes,5 days,500,-34.0957,18.82183,,City of Cape Town,CPT
301,72,Cape Town MM,CT Tygerberg SD,Stikland Hospital,Primary vaccination site,Pfizer,2021-05-24 00:00:00,yes,5 days,0,-33.89297,18.65555,,City of Cape Town,CPT
302,73,Cape Town MM,CT Eastern SD,Strand CDC,Primary vaccination site,Pfizer,2021-05-31 00:00:00,yes,5 days,20,-33.82368,25.65671,,City of Cape Town,CPT
303,74,Cape Town MM,CT Tygerberg SD,Symphony Way CDC,Primary vaccination site,Pfizer,2021-05-24 00:00:00,yes,5 days,100,-33.94338,18.63477,,City of Cape Town,CPT
304,75,Cape Town MM,CT Tygerberg SD,University of the Western Cape vaccine site,Temporary Outreach Site,Pfizer,2021-08-06 00:00:00,yes,5 days,300,-33.93319,18.62652,,City of Cape Town,CPT
305,76,Cape Town MM,CT Western SD,Vanguard CHC,Primary vaccination site,Pfizer,2021-06-04 00:00:00,yes,5 days,100,-34.1178,18.83311,,City of Cape Town,CPT
306,77,Cape Town MM,CT Western SD,West EMS Pinelands,Fixed Outreach site,J&J,2021-05-31 00:00:00,yes,5 days,500,-34.12428,18.83329,,City of Cape Town,CPT
307,78,Cape Winelands,Breede Valley Municipality,De Doorns Clinic,Temporary outreach site,Pfizer,2021-06-07 00:00:00,Yes,5 days,50,-33.47753,19.6668,Breede Valley,Cape Winelands,DC2
308,79,Cape Winelands,Breede Valley Municipality,Empilisweni (Worcester) Clinic,Temporary outreach site,Pfizer,2021-06-07 00:00:00,Yes,5 days,50,-33.64899,19.4652,Breede Valley,Cape Winelands,DC2
309,80,Cape Winelands,Breede Valley Municipality,Rawsonville Clinic,Temporary outreach site,Pfizer,2021-06-07 00:00:00,Yes,5 days,30,-34.10718,18.38994,Breede Valley,Cape Winelands,DC2
310,81,Cape Winelands,Breede Valley Municipality,Worcester Town Hall,Temporary outreach site,Pfizer,2021-05-31 00:00:00,yes,5 days,200,,,Breede Valley,Cape Winelands,DC2
311,82,Cape Winelands,Breede Valley Municipality,Touws River Clinic,Temporary outreach site,Pfizer,2021-05-31 00:00:00,Yes,5 days,20,-33.39787,25.48392,Breede Valley,Cape Winelands,DC2
312,83,Cape Winelands,Breede Valley Municipality,Orchard Clinic,Temporary outreach site,Pfizer,2021-06-07 00:00:00,Yes,5 days,20,-34.10718,18.38994,Breede Valley,Cape Winelands,DC2
313,84,Cape Winelands,Breede Valley Municipality,Sandhills Clinic,Temporary outreach site,Pfizer,2021-06-07 00:00:00,Yes,5 days,20,-34.10718,18.38994,Breede Valley,Cape Winelands,DC2
314,85,Cape Winelands,Breede Valley Municipality,Rawsonville VGK Church Hall,Temporary outreach site,Pfizer,2021-07-12 00:00:00,Yes,1 day,150,-33.66699981689453,19.5,Breede Valley,Cape Winelands,DC2
315,86,Cape Winelands,Drakenstein Municipality,Dalvale Clinic,Primary vaccination site,Pfizer,2021-07-05 00:00:00,Yes,5 days,30,-33.69744,19.00106,Drakenstein,Cape Winelands,DC2
316,87,Cape Winelands,Drakenstein Municipality,Gouda Clinic,Primary vaccination site,Pfizer,2021-06-28 00:00:00,Yes,5 days,30,-33.30074,19.04023,Drakenstein,Cape Winelands,DC2
317,88,Cape Winelands,Drakenstein Municipality,Huis McCrone Clinic,Primary vaccination site,Pfizer,2021-06-07 00:00:00,Yes,5 days,100,-33.5,19.0,Drakenstein,Cape Winelands,DC2
318,89,Cape Winelands,Drakenstein Municipality,Klein Drakenstein Clinic,Primary vaccination site,Pfizer,2021-07-05 00:00:00,Yes,5 days,30,-33.7337,18.99748,Drakenstein,Cape Winelands,DC2
319,90,Cape Winelands,Drakenstein Municipality,Nieuwedrift Clinic,Primary vaccination site,Pfizer,2021-07-05 00:00:00,Yes,5 days,30,-33.73151,18.96233,Drakenstein,Cape Winelands,DC2
320,91,Cape Winelands,Drakenstein Municipality,Patriot Plein Clinic,Primary vaccination site,Pfizer,2021-07-05 00:00:00,Yes,5 days,30,-33.7337,18.99748,Drakenstein,Cape Winelands,DC2
321,92,Cape Winelands,Drakenstein Municipality,Phola Park Clinic,Primary vaccination site,Pfizer,2021-07-05 00:00:00,Yes,5 days,30,-32.68844,26.09794,Drakenstein,Cape Winelands,DC2
322,93,Cape Winelands,Drakenstein Municipality,Saron Clinic,Primary vaccination site,Pfizer,2021-06-28 00:00:00,Yes,5 days,30,-25.57747,27.15405,Drakenstein,Cape Winelands,DC2
323,94,Cape Winelands,Drakenstein Municipality,Simondium Clinic,Primary vaccination site,Pfizer,2021-07-05 00:00:00,Yes,5 days,30,-33.73151,18.96233,Drakenstein,Cape Winelands,DC2
324,95,Cape Winelands,Drakenstein Municipality,Soetendal Clinic,Primary vaccination site,Pfizer,2021-07-05 00:00:00,Yes,5 days,30,-33.73151,18.96233,Drakenstein,Cape Winelands,DC2
325,96,Cape Winelands,Drakenstein Municipality,TC Newman CDC,Primary vaccination site,Pfizer,2021-05-31 00:00:00,yes,6 days,300,-33.73595,18.99151,Drakenstein,Cape Winelands,DC2
326,97,Cape Winelands,Drakenstein Municipality,Wellington CDC,Primary vaccination site,Pfizer,2021-07-12 00:00:00,Yes,5 days,150,-33.64163,19.0038,Drakenstein,Cape Winelands,DC2
327,98,Cape Winelands,Drakenstein Municipality,Windmeul Clinic,Primary vaccination site,Pfizer,2021-07-05 00:00:00,Yes,5 days,30,-33.67088,18.91389,Drakenstein,Cape Winelands,DC2
328,99,Cape Winelands,Drakenstein Municipality,Mbekweni Community Hall,Temporary outreach site,Pfizer,2021-06-07 00:00:00,Yes,5 days,150,-29.57958,30.38882,Drakenstein,Cape Winelands,DC2
329,100,Cape Winelands,Drakenstein Municipality,Thusong Centre Phola Park,Temporary outreach site,Pfizer,2021-07-05 00:00:00,Yes,5 days,150,-32.68844,26.09794,Drakenstein,Cape Winelands,DC2
330,101,Cape Winelands,Langeberg Municipality,Cogmanskloof Clinic,Primary vaccination site,Pfizer,2021-07-12 00:00:00,Yes,5 days,20,-33.9455,19.82917,Langeberg,Cape Winelands,DC2
331,102,Cape Winelands,Langeberg Municipality,Zolani Clinic,Primary vaccination site,Pfizer,2021-06-21 00:00:00,Yes,5 days,20,-33.9455,19.82917,Langeberg,Cape Winelands,DC2
332,103,Cape Winelands,Langeberg Municipality,Montagu Clinic,Primary vaccination site,Pfizer,2021-06-07 00:00:00,Yes,5 days,30,-33.78631,20.11995,Langeberg,Cape Winelands,DC2
333,104,Cape Winelands,Langeberg Municipality,McGregor Clinic,Primary vaccination site,Pfizer,2021-07-05 00:00:00,Yes,5 days,20,-33.9455,19.82917,Langeberg,Cape Winelands,DC2
334,105,Cape Winelands,Langeberg Municipality,Happy Valley Clinic,Primary vaccination site,Pfizer,2021-07-05 00:00:00,Yes,5 days,20,-33.93286,20.07466,Langeberg,Cape Winelands,DC2
335,106,Cape Winelands,Langeberg Municipality,Callie de Wet Hall,Temporary outreach site,Pfizer,2021-05-31 00:00:00,yes,5 days,300,-28.53555,29.77194,Langeberg,Cape Winelands,DC2
336,107,Cape Winelands,Langeberg Municipality,Chris Van Zyl Hall,Temporary outreach site,Pfizer,2021-07-01 00:00:00,Yes,1 day,300,-33.93876,20.10143,Langeberg,Cape Winelands,DC2
337,108,Cape Winelands,Langeberg Municipality,Montagu Community Hall,Temporary outreach site,Pfizer,2021-07-12 00:00:00,Yes,1 day,100,-29.57958,30.38882,Langeberg,Cape Winelands,DC2
338,109,Cape Winelands,Langeberg Municipality,Ashton Town Hall,Temporary outreach site,Pfizer,2021-07-12 00:00:00,Yes,1 day,100,-33.8329,18.66904,Langeberg,Cape Winelands,DC2
339,110,Cape Winelands,Stellenbosch Municipality,Cloetesville CDC,Primary vaccination site,Pfizer,2021-06-07 00:00:00,Yes,5 days,50,-33.91351,18.85543,Stellenbosch,Cape Winelands,DC2
340,111,Cape Winelands,Stellenbosch Municipality,Kayamandi Clinic,Temporary outreach site,Pfizer,2021-06-07 00:00:00,Yes,5 days,10,-33.91738,18.84684,Stellenbosch,Cape Winelands,DC2
341,112,Cape Winelands,Stellenbosch Municipality,Idas Valley Clinic,Temporary outreach site,Pfizer,2021-06-07 00:00:00,Yes,5 days,50,-33.92087,18.88679,Stellenbosch,Cape Winelands,DC2
342,113,Cape Winelands,Stellenbosch Municipality,Kylemore Clinic,Temporary outreach site,Pfizer,2021-06-07 00:00:00,Yes,5 days,30,-33.91336,18.94836,Stellenbosch,Cape Winelands,DC2
343,114,Cape Winelands,Stellenbosch Municipality,Don and Pat Bilton Clinic,Temporary outreach site,Pfizer,2021-07-05 00:00:00,Yes,5 days,30,-33.91699981689453,19.91699981689453,Stellenbosch,Cape Winelands,DC2
344,115,Cape Winelands,Stellenbosch Municipality,Klapmuts Multi-Purpose Centre,Temporary outreach site,Pfizer,2021-06-17 00:00:00,Yes,1 day,150,-33.80111,18.8723,Stellenbosch,Cape Winelands,DC2
345,116,Cape Winelands,Stellenbosch Municipality,Groendal Community Hall,Temporary outreach site,Pfizer,2021-06-18 00:00:00,Yes,1 day,150,-29.57958,30.38882,Stellenbosch,Cape Winelands,DC2
346,117,Cape Winelands,Stellenbosch Municipality,Van Der Stel Sports Grounds,Temporary outreach site,Pfizer,2021-05-31 00:00:00,yes,5 days,250,-33.9358,18.88005,Stellenbosch,Cape Winelands,DC2
347,118,Cape Winelands,Stellenbosch Municipality,Kayamandi Corridor,Temporary outreach site,Pfizer,2021-06-14 00:00:00,Yes,1 day,150,-33.91738,18.84684,Stellenbosch,Cape Winelands,DC2
348,119,Cape Winelands,Stellenbosch Municipality,Eikestad Hall,Temporary outreach site,Pfizer,2021-06-14 00:00:00,Yes,1 day,150,-33.93816,18.85962,Stellenbosch,Cape Winelands,DC2
349,120,Cape Winelands,Witzenberg Municipality,Ceres Hospital,Primary vaccination site,Pfizer,2021-05-31 00:00:00,Yes,5 days,250,-33.37101,19.3057,Witzenberg,Cape Winelands,DC2
350,121,Cape Winelands,Witzenberg Municipality,Prince Alfred Hamlet Clinic,Temporary outreach site,Pfizer,2021-06-07 00:00:00,Yes,1 day,150,-33.29369,19.32826,Witzenberg,Cape Winelands,DC2
351,122,Cape Winelands,Witzenberg Municipality,Op die Berg Clinic,Temporary outreach site,Pfizer,2021-06-07 00:00:00,Yes,1 day,150,-33.01958,19.31327,Witzenberg,Cape Winelands,DC2
352,123,Cape Winelands,Witzenberg Municipality,Tulbagh Clinic,Temporary outreach site,Pfizer,2021-06-07 00:00:00,Yes,1 day,150,-33.28318,19.14539,Witzenberg,Cape Winelands,DC2
353,124,Cape Winelands,Witzenberg Municipality,Wolseley Clinic,Temporary outreach site,Pfizer,2021-06-07 00:00:00,Yes,1 day,150,-33.29369,19.32826,Witzenberg,Cape Winelands,DC2
354,125,Cape Winelands,Witzenberg Municipality,Nduli Clinic,Temporary outreach site,Pfizer,2021-06-28 00:00:00,Yes,1 day,150,-33.35549,19.34465,Witzenberg,Cape Winelands,DC2
355,126,Cape Winelands,Witzenberg Municipality,Bella Vista Clinic,Temporary outreach site,Pfizer,2021-06-07 00:00:00,Yes,1 day,150,-33.33214,19.31811,Witzenberg,Cape Winelands,DC2
356,127,Central Karoo,Beaufort West Municipality,Merweville Satellite Clinic,Temporary outreach site,Pfizer,2021-06-23 00:00:00,Yes,1 day,10,-32.66956,21.51132,,Central Karoo,DC5
357,128,Central Karoo,Beaufort West Municipality,Hillside Clinic,Temporary outreach site,Pfizer,2021-06-15 00:00:00,Yes,5 days,100,-32.35172,22.5582,,Central Karoo,DC5
358,129,Central Karoo,Beaufort West Municipality,Beaufort West CDC,Temporary outreach site,Pfizer,2021-06-11 00:00:00,Yes,5 days,100,-32.35099,22.58277,,Central Karoo,DC5
359,130,Central Karoo,Beaufort West Municipality,Kwamandlenkosi Clinic,Temporary outreach site,Pfizer,2021-06-14 00:00:00,Yes,5 days,100,-32.35099,22.58277,,Central Karoo,DC5
360,131,Central Karoo,Beaufort West Municipality,Nieuveldpark Clinic,Temporary outreach site,Pfizer,2021-06-10 00:00:00,Yes,5 days,100,-32.37786,22.56109,,Central Karoo,DC5
361,132,Central Karoo,Beaufort West Municipality,Nelspoort Clinic,Temporary outreach site,Pfizer,2021-06-17 00:00:00,Yes,1 day,10,-32.09058,23.00852,,Central Karoo,DC5
362,133,Central Karoo,Beaufort West Municipality,Murraysburg Clinic,Primary vaccination site,Pfizer,2021-07-02 00:00:00,Yes,5 days,50,-32.35099,22.58277,,Central Karoo,DC5
363,134,Central Karoo,Laingsburg Municipality,Matjiesfontein Satellite Clinic,Temporary outreach site,Pfizer,2021-07-02 00:00:00,Yes,1 day,0,-28.996320724487305,25.087142944335938,,Central Karoo,DC5
364,135,Central Karoo,Laingsburg Municipality,Laingsburg Clinic,Primary vaccination site,Pfizer,2021-06-14 00:00:00,Yes,5 days,100,-33.19524,20.85891,,Central Karoo,DC5
365,136,Central Karoo,Prince Albert Municipality,Prince Albert Clinic,Primary vaccination site,Pfizer,2021-06-15 00:00:00,Yes,5 days,100,-33.22765,22.03083,,Central Karoo,DC5
366,137,Central Karoo,Prince Albert Municipality,Klaarstroom Satellite Clinic,Temporary outreach site,Pfizer,2021-07-01 00:00:00,Yes,1 day,10,-33.32632,22.52922,,Central Karoo,DC5
367,138,Central Karoo,Prince Albert Municipality,Leeu-Gamka Clinic,Temporary outreach site,Pfizer,2021-06-15 00:00:00,Yes,1 day,20,-32.77487,21.97822,,Central Karoo,DC5
368,139,Garden Route,Bitou Municipality,Plettenberg Bay Clinic,Temporary outreach site,Pfizer,2021-06-02 00:00:00,Yes,5 days,150,-34.05256,23.34208,,Garden Route,DC4
369,140,Garden Route,Bitou Municipality,Kwanokuthula CDC,Primary vaccination site,Pfizer,2021-06-14 00:00:00,Yes,3 days,150,-34.05166,23.31731,,Garden Route,DC4
370,141,Garden Route,Bitou Municipality,Crags Clinic,Temporary outreach site,Pfizer,2021-06-21 00:00:00,Yes,1 day,120,-33.95678,23.47376,,Garden Route,DC4
371,142,Garden Route,Bitou Municipality,Kranshoek Clinic,Temporary outreach site,Pfizer,2021-06-21 00:00:00,Yes,1 day,150,-34.09114,23.29746,,Garden Route,DC4
372,143,Garden Route,George Municipality,Harry Comay TB Hospital,Primary vaccination site,Pfizer,2021-06-02 00:00:00,Yes,5 days,350,-33.97102,22.48048,,Garden Route,DC4
373,144,Garden Route,George Municipality,Thembalethu CDC,Primary vaccination site,Pfizer,2021-06-03 00:00:00,Yes,5 days,350,-33.9604,22.45624,,Garden Route,DC4
374,145,Garden Route,George Municipality,George Central Clinic,Temporary outreach site,Pfizer,2021-06-03 00:00:00,Yes,5 days,150,-33.9723,22.47807,,Garden Route,DC4
375,146,Garden Route,George Municipality,Uniondale Hospital,Primary vaccination site,Pfizer,2021-06-07 00:00:00,Yes,5 days,50,-33.65931,23.12566,,Garden Route,DC4
376,147,Garden Route,George Municipality,George Mobile 1,Temporary outreach site,Pfizer,2021-06-07 00:00:00,Yes,5 days,100,-34.18095,22.13983,,Garden Route,DC4
377,148,Garden Route,George Municipality,Pacaltsdorp Clinic,Primary vaccination site,Pfizer,2021-06-07 00:00:00,Yes,5 days,50,-33.99945,22.45632,,Garden Route,DC4
378,149,Garden Route,Hessequa Municipality,Riversdale Civic Centre,Temporary outreach site,Pfizer,2021-06-03 00:00:00,Yes,5 days,100,-34.16699981689453,21.25,,Garden Route,DC4
379,150,Garden Route,Hessequa Municipality,Heidelberg Duivenhoks Hall,Temporary outreach site,Pfizer,2021-06-09 00:00:00,Yes,3 days,100,-34.08903,20.95656,,Garden Route,DC4
380,151,Garden Route,Hessequa Municipality,Albertinia Theronsville Hall,Temporary outreach site,Pfizer,2021-06-10 00:00:00,Yes,2 days,100,-34.20303,21.57575,,Garden Route,DC4
381,152,Garden Route,Hessequa Municipality,Melkhoutfontein Satellite Clinic,Temporary outreach site,Pfizer,2021-06-09 00:00:00,Yes,1 day,100,-34.32767,21.51322,,Garden Route,DC4
382,153,Garden Route,Hessequa Municipality,Still Bay Civic Centre,Temporary outreach site,Pfizer,2021-06-10 00:00:00,Yes,4 days,100,-34.37094,21.4052,,Garden Route,DC4
383,154,Garden Route,Hessequa Municipality,Slangrivier Satellite Clinic,Temporary outreach site,Pfizer,2021-06-11 00:00:00,Yes,1 day,40,-34.16699981689453,21.25,,Garden Route,DC4
384,155,Garden Route,Hessequa Municipality,Witsand de Duine Hall,Temporary outreach site,Pfizer,2021-06-08 00:00:00,Yes,3 days,35,-34.08606,20.96038,,Garden Route,DC4
385,156,Garden Route,Hessequa Municipality,Gouritsmond Hall,Temporary outreach site,Pfizer,2021-06-22 00:00:00,Yes,2 days,70,-34.35318,21.88061,,Garden Route,DC4
386,157,Garden Route,Kannaland Municipality,Ladismith DRC Church Hall,Temporary outreach site,Pfizer,2021-06-07 00:00:00,Yes,2 days,200,-33.49336,21.26542,,Garden Route,DC4
387,158,Garden Route,Kannaland Municipality,Zoar Sports Club,Temporary outreach site,Pfizer,2021-06-02 00:00:00,Yes,1 day,200,-28.996320724487305,25.087142944335938,,Garden Route,DC4
388,159,Garden Route,Kannaland Municipality,Calitzdorp DRC Church Hall,Temporary outreach site,Pfizer,2021-06-04 00:00:00,Yes,2 days,200,-33.49336,21.26542,,Garden Route,DC4
389,160,Garden Route,Kannaland Municipality,Van Wyksdorp Kerksaal,Temporary outreach site,Pfizer,2021-06-08 00:00:00,Yes,1 day,150,-33.7479,21.46167,,Garden Route,DC4
390,161,Garden Route,Knysna Municipality,Knysna CDC,Temporary outreach site,Pfizer,2021-06-21 00:00:00,Yes,5 days,100,-34.03577,23.05189,,Garden Route,DC4
391,162,Garden Route,Knysna Municipality,Knysna Town Hall,Temporary outreach site,Pfizer,2021-06-07 00:00:00,Yes,5 days,200,-34.05262,23.09899,,Garden Route,DC4
392,163,Garden Route,Knysna Municipality,Sedgefield Clinic,Temporary outreach site,Pfizer,2021-06-15 00:00:00,Yes,2 days,100,-34.01233,22.80191,,Garden Route,DC4
393,164,Garden Route,Knysna Municipality,Keurhoek Satellite Clinic,Temporary outreach site,Pfizer,2021-06-18 00:00:00,Yes,1 day,50,-34.03577423095703,23.051895141601562,,Garden Route,DC4
394,165,Garden Route,Knysna Municipality,Karatara Satellite Clinic,Temporary outreach site,Pfizer,2021-06-14 00:00:00,Yes,1 day,50,-34.03577423095703,23.051895141601562,,Garden Route,DC4
395,166,Garden Route,Mossel Bay Municipality,Alma CDC,Temporary outreach site,Pfizer,2021-06-04 00:00:00,Yes,4 days,300,-28.996320724487305,25.087142944335938,,Garden Route,DC4
396,167,Garden Route,Mossel Bay Municipality,Wolwedans Community Hall,Temporary outreach site,Pfizer,2021-06-14 00:00:00,Yes,4 days,200,-34.16926,22.11997,,Garden Route,DC4
397,168,Garden Route,Mossel Bay Municipality,Mossel Bay Town Hall,Temporary outreach site,Pfizer,2021-06-14 00:00:00,Yes,4 days,300,-34.18121,22.14111,,Garden Route,DC4
398,169,Garden Route,Mossel Bay Municipality,Mossel Bay Outreach Mobile,Temporary outreach site,Pfizer,2021-05-31 00:00:00,Yes,4 days,200,-28.996320724487305,25.087142944335938,,Garden Route,DC4
399,170,Garden Route,Mossel Bay Municipality,D'Almeida Community Hall,Temporary outreach site,Pfizer,2021-06-07 00:00:00,Yes,4 days,300,-34.16926,22.11997,,Garden Route,DC4
400,171,Garden Route,Oudtshoorn Municipality,Toekomsrust Community Hall,Temporary outreach site,Pfizer,2021-06-21 00:00:00,Yes,5 days,300,-29.57958,30.38882,,Garden Route,DC4
401,172,Garden Route,Oudtshoorn Municipality,Dysselsdorp Clinic,Temporary outreach site,Pfizer,2021-06-15 00:00:00,Yes,1 day,100,-33.57594,22.43182,,Garden Route,DC4
402,173,Garden Route,Oudtshoorn Municipality,De Rust (Blommenek) Clinic,Temporary outreach site,Pfizer,2021-06-17 00:00:00,Yes,1 day,100,-33.48872,22.53482,,Garden Route,DC4
403,174,Garden Route,Oudtshoorn Municipality,Oudtshoorn Clinic,Temporary outreach site,Pfizer,2021-07-05 00:00:00,Yes,5 days,100,-33.5887,22.20397,,Garden Route,DC4
404,175,Overberg,Cape Agulhas Municipality,Bredasdorp Glaskasteel,Temporary outreach site,Pfizer,2021-06-16 00:00:00,Yes,1 day,32,-34.5258,20.06289,Cape Agulhas,Overberg,DC3
405,176,Overberg,Cape Agulhas Municipality,Nelson Mandela Hall,Temporary outreach site,Pfizer,2021-06-14 00:00:00,Yes,1 day,32,-33.72651,25.42972,Cape Agulhas,Overberg,DC3
406,177,Overberg,Cape Agulhas Municipality,Bredasdorp Mobile 1,Temporary outreach site,Pfizer,2021-06-09 00:00:00,Yes,1 day,32,-34.5258,20.06289,Cape Agulhas,Overberg,DC3
407,178,Overberg,Cape Agulhas Municipality,Bredasdorp Mobile 2,Temporary outreach site,Pfizer,2021-06-09 00:00:00,Yes,1 day,32,-34.5258,20.06289,Cape Agulhas,Overberg,DC3
408,179,Overberg,Cape Agulhas Municipality,Struisbaai Clinic,Temporary outreach site,Pfizer,2021-06-10 00:00:00,Yes,1 day,32,-34.66757,20.23169,Cape Agulhas,Overberg,DC3
409,180,Overberg,Cape Agulhas Municipality,Napier Clinic,Temporary outreach site,Pfizer,2021-06-03 00:00:00,Yes,1 day,32,-34.67029,20.23247,Cape Agulhas,Overberg,DC3
410,181,Overberg,Cape Agulhas Municipality,Elim Satellite Clinic,Temporary outreach site,Pfizer,2021-06-08 00:00:00,Yes,1 day,32,-34.59181,19.7596,Cape Agulhas,Overberg,DC3
411,182,Overberg,Cape Agulhas Municipality,Waenhuiskrans Satellite Clinic,Temporary outreach site,Pfizer,2021-06-07 00:00:00,Yes,1 day,32,-34.66757,20.23169,Cape Agulhas,Overberg,DC3
412,183,Overberg,Overstrand Municipality,Chapel Bettysbay,Temporary outreach site,Pfizer,2021-06-08 00:00:00,Yes,1 day,100,-34.35499,18.93062,Overstrand,Overberg,DC3
413,184,Overberg,Overstrand Municipality,Mooi Uitsig Community Hall,Temporary outreach site,Pfizer,2021-06-21 00:00:00,Yes,1 day,40,-33.5965,22.24917,Overstrand,Overberg,DC3
414,185,Overberg,Overstrand Municipality,Hermanus CDC,Primary vaccination site,Pfizer,2021-06-09 00:00:00,Yes,3 days,150,-34.42043,19.24011,Overstrand,Overberg,DC3
415,186,Overberg,Overstrand Municipality,Mount Pleasant Moffat Hall,Temporary outreach site,Pfizer,2021-06-01 00:00:00,Yes,2 days,100,-34.42444,19.21356,Overstrand,Overberg,DC3
416,187,Overberg,Overstrand Municipality,Hermanus Auditorium,Temporary outreach site,Pfizer,2021-06-07 00:00:00,Yes,5 days,200,-34.42043,19.24011,Overstrand,Overberg,DC3
417,188,Overberg,Overstrand Municipality,Zwelihle Community Hall,Temporary outreach site,Pfizer,2021-06-01 00:00:00,Yes,2 days,100,-34.41699981689453,19.33300018310547,Overstrand,Overberg,DC3
418,189,Overberg,Overstrand Municipality,Proteadorp Community Hall,Temporary outreach site,Pfizer,2021-06-14 00:00:00,Yes,3 days,150,-29.57958,30.38882,Overstrand,Overberg,DC3
419,190,Overberg,Overstrand Municipality,Hawston Thusong Hall,Temporary outreach site,Pfizer,2021-06-04 00:00:00,Yes,2 days,100,-34.41699981689453,19.33300018310547,Overstrand,Overberg,DC3
420,191,Overberg,Overstrand Municipality,Stanford Clinic,Temporary outreach site,Pfizer,2021-06-02 00:00:00,Yes,2 days,100,-34.44074,19.45859,Overstrand,Overberg,DC3
421,192,Overberg,Overstrand Municipality,Caledon/Hermanus/Stanford Mobile 4,Temporary outreach site,Pfizer,2021-06-23 00:00:00,Yes,1 day,50,-34.42043,19.24011,Overstrand,Overberg,DC3
422,193,Overberg,Overstrand Municipality,Sports Hall Gansbaai,Temporary outreach site,Pfizer,2021-06-14 00:00:00,Yes,3 days,150,-34.61406,19.35966,Overstrand,Overberg,DC3
423,194,Overberg,Swellendam Municipality,Swellendam Showgrounds,Temporary outreach site,Pfizer,2021-06-16 00:00:00,Yes,1 day,250,-34.02065,20.44392,Swellendam,Overberg,DC3
424,195,Overberg,Swellendam Municipality,Nuwedorp Mobile Post,Temporary outreach site,Pfizer,2021-06-09 00:00:00,Yes,1 day,100,-34.03905,20.42586,Swellendam,Overberg,DC3
425,196,Overberg,Swellendam Municipality,Railton Community Hall,Temporary outreach site,Pfizer,2021-06-09 00:00:00,Yes,1 day,100,-29.57958,30.38882,Swellendam,Overberg,DC3
426,197,Overberg,Swellendam Municipality,Fort Haven Hall Barrydale,Temporary outreach site,Pfizer,2021-06-11 00:00:00,Yes,1 day,100,-33.91289,20.73057,Swellendam,Overberg,DC3
427,198,Overberg,Swellendam Municipality,Suurbraak Clinic,Temporary outreach site,Pfizer,2021-06-18 00:00:00,Yes,1 day,150,-34.00416,20.64944,Swellendam,Overberg,DC3
428,199,Overberg,Swellendam Municipality,Buffeljagsrivier Clinic,Temporary outreach site,Pfizer,2021-06-10 00:00:00,Yes,1 day,150,-34.02065,20.44392,Swellendam,Overberg,DC3
429,200,Overberg,Theewaterskloof Municipality,Grabouw CHC,Primary vaccination site,Pfizer,2021-06-01 00:00:00,Yes,5 days,200,-34.15515,18.9848,Theewaterskloof,Overberg,DC3
430,201,Overberg,Theewaterskloof Municipality,Grabouw Kleinbegin/Timbers,Temporary outreach site,Pfizer,2021-06-07 00:00:00,Yes,3 days,100,-34.15515,18.9848,Theewaterskloof,Overberg,DC3
431,202,Overberg,Theewaterskloof Municipality,Villiersdorp Clinic,Temporary outreach site,Pfizer,2021-06-07 00:00:00,Yes,3 days,100,-34.23544,19.41551,Theewaterskloof,Overberg,DC3
432,203,Overberg,Theewaterskloof Municipality,Botrivier Clinic,Temporary outreach site,Pfizer,2021-06-07 00:00:00,Yes,3 days,50,-34.22618,19.20443,Theewaterskloof,Overberg,DC3
433,204,Overberg,Theewaterskloof Municipality,Genadendal Clinic,Temporary outreach site,Pfizer,2021-05-31 00:00:00,Yes,3 days,50,-34.23544,19.41551,Theewaterskloof,Overberg,DC3
434,205,Overberg,Theewaterskloof Municipality,Voorstekraal Satellite Clinic,Temporary outreach site,Pfizer,2021-06-02 00:00:00,Yes,1 day,20,-28.996320724487305,25.087142944335938,Theewaterskloof,Overberg,DC3
435,206,Overberg,Theewaterskloof Municipality,Bereaville Satellite Clinic,Temporary outreach site,Pfizer,2021-06-02 00:00:00,Yes,1 day,20,-28.996320724487305,25.087142944335938,Theewaterskloof,Overberg,DC3
436,207,Overberg,Theewaterskloof Municipality,Greyton Satellite Clinic,Temporary outreach site,Pfizer,2021-06-03 00:00:00,Yes,1 day,20,-28.996320724487305,25.087142944335938,Theewaterskloof,Overberg,DC3
437,208,Overberg,Theewaterskloof Municipality,Victoria Hall Caledon,Temporary outreach site,Pfizer,2021-06-14 00:00:00,Yes,2 days,50,-34.23147,19.42721,Theewaterskloof,Overberg,DC3
438,209,Overberg,Theewaterskloof Municipality,Caledon Hospital,Primary vaccination site,Pfizer,2021-05-31 00:00:00,Yes,5 days,50,-28.996320724487305,25.087142944335938,Theewaterskloof,Overberg,DC3
439,210,Overberg,Theewaterskloof Municipality,Riviersonderend Clinic,Temporary outreach site,Pfizer,2021-06-07 00:00:00,Yes,2 days,50,-34.0867,19.78335,Theewaterskloof,Overberg,DC3
440,211,West Coast,Bergrivier Municipality,Piketberg Clinic,Primary vaccination site,Pfizer,2021-05-31 00:00:00,Yes,4 days,50,-32.92596,18.32711,Bergrivier,West Coast,DC1
441,212,West Coast,Bergrivier Municipality,Porterville Clinic,Primary vaccination site,Pfizer,2021-05-31 00:00:00,Yes,3 days,50,-32.92596,18.32711,Bergrivier,West Coast,DC1
442,213,West Coast,Bergrivier Municipality,Wittewater Satellite Clinic,Temporary outreach site,Pfizer,2021-06-09 00:00:00,Yes,1 day,50,-32.75,18.75,Bergrivier,West Coast,DC1
443,214,West Coast,Bergrivier Municipality,Goedverwacht Satellite Clinic,Temporary outreach site,Pfizer,2021-06-01 00:00:00,Yes,1 day,50,-32.75,18.75,Bergrivier,West Coast,DC1
444,215,West Coast,Bergrivier Municipality,Eendekuil Satellite Clinic,Temporary outreach site,Pfizer,2021-06-11 00:00:00,Yes,1 day,50,-32.75,18.75,Bergrivier,West Coast,DC1
445,216,West Coast,Bergrivier Municipality,Redelinghuys Satellite Clinic,Temporary outreach site,Pfizer,2021-06-08 00:00:00,Yes,1 day,50,-32.75,18.75,Bergrivier,West Coast,DC1
446,217,West Coast,Bergrivier Municipality,Aurora Satellite Clinic,Temporary outreach site,Pfizer,2021-05-31 00:00:00,Yes,1 day,50,-32.75,18.75,Bergrivier,West Coast,DC1
447,218,West Coast,Bergrivier Municipality,Velddrif Clinic,Primary vaccination site,Pfizer,2021-05-31 00:00:00,Yes,4 days,50,-32.78574,18.18173,Bergrivier,West Coast,DC1
448,219,West Coast,Cederberg Municipality,Citrusdal Clinic,Primary vaccination site,Pfizer,2021-06-01 00:00:00,Yes,5 days,0,-32.5038,19.25929,Cederberg,West Coast,DC1
449,220,West Coast,Cederberg Municipality,Graafwater Clinic,Primary vaccination site,Pfizer,2021-06-07 00:00:00,Yes,5 days,50,-32.1732,18.86912,Cederberg,West Coast,DC1
450,221,West Coast,Cederberg Municipality,Lamberts Bay Clinic,Primary vaccination site,Pfizer,2021-06-01 00:00:00,Yes,5 days,30,-32.09815,18.3102,Cederberg,West Coast,DC1
451,222,West Coast,Cederberg Municipality,Elands Bay Clinic,Primary vaccination site,Pfizer,2021-06-07 00:00:00,Yes,5 days,30,-32.3138,18.34026,Cederberg,West Coast,DC1
452,223,West Coast,Cederberg Municipality,Wupperthal Clinic,Temporary outreach site,Pfizer,2021-06-08 00:00:00,Yes,5 days,50,-32.27348,19.2191,Cederberg,West Coast,DC1
453,224,West Coast,Cederberg Municipality,Citrusdal Hospital,Primary vaccination site,Pfizer,2021-06-01 00:00:00,Yes,5 days,30,-32.50379943847656,19.259294509887695,Cederberg,West Coast,DC1
454,225,West Coast,Cederberg Municipality,Clanwilliam Hospital,Primary vaccination site,Pfizer,2021-06-01 00:00:00,Yes,5 days,30,-32.18195,18.88754,Cederberg,West Coast,DC1
455,226,West Coast,Matzikama Municipality,Klawer Community Hall,Temporary outreach site,Pfizer,2021-06-14 00:00:00,Yes,5 days,28,-29.57958,30.38882,Matzikama,West Coast,DC1
456,227,West Coast,Matzikama Municipality,Lutzville Community Hall West,Temporary outreach site,Pfizer,2021-06-02 00:00:00,Yes,3 days,28,-30.95624,18.04166,Matzikama,West Coast,DC1
457,228,West Coast,Matzikama Municipality,Lutzville Uitkyk,Temporary outreach site,Pfizer,2021-06-28 00:00:00,Yes,5 days,28,-31.55007,18.34166,Matzikama,West Coast,DC1
458,229,West Coast,Matzikama Municipality,Vredendal North Community Hall,Temporary outreach site,Pfizer,2021-06-01 00:00:00,Yes,5 days,28,-31.64618,18.52816,Matzikama,West Coast,DC1
459,230,West Coast,Matzikama Municipality,Van Rhynsdorp Community Hall,Temporary outreach site,Pfizer,2021-06-22 00:00:00,Yes,5 days,28,-29.57958,30.38882,Matzikama,West Coast,DC1
460,231,West Coast,Matzikama Municipality,Doringbaai Satellite Clinic,Temporary outreach site,Pfizer,2021-06-29 00:00:00,Yes,3 days,28,-28.996320724487305,25.087142944335938,Matzikama,West Coast,DC1
461,232,West Coast,Matzikama Municipality,Ebenhaezer Satellite Clinic,Temporary outreach site,Pfizer,2021-06-28 00:00:00,Yes,3 days,28,-28.996320724487305,25.087142944335938,Matzikama,West Coast,DC1
462,233,West Coast,Matzikama Municipality,Koekenaap Satellite Clinic,Temporary outreach site,Pfizer,2021-06-30 00:00:00,Yes,3 days,28,-28.996320724487305,25.087142944335938,Matzikama,West Coast,DC1
463,234,West Coast,Matzikama Municipality,Bitterfontein Satellite Clinic,Temporary outreach site,Pfizer,2021-06-11 00:00:00,Yes,1 day,28,-28.996320724487305,25.087142944335938,Matzikama,West Coast,DC1
464,235,West Coast,Matzikama Municipality,Kliprand Satellite Clinic,Temporary outreach site,Pfizer,2021-06-29 00:00:00,Yes,1 day,28,-28.996320724487305,25.087142944335938,Matzikama,West Coast,DC1
465,236,West Coast,Matzikama Municipality,Molsvlei Satellite Clinic,Temporary outreach site,Pfizer,2021-06-17 00:00:00,Yes,1 day,28,-28.996320724487305,25.087142944335938,Matzikama,West Coast,DC1
466,237,West Coast,Matzikama Municipality,Nuwerus Satellite Clinic,Temporary outreach site,Pfizer,2021-06-18 00:00:00,Yes,1 day,28,-28.996320724487305,25.087142944335938,Matzikama,West Coast,DC1
467,238,West Coast,Matzikama Municipality,Rietpoort Satellite Clinic,Temporary outreach site,Pfizer,2021-06-15 00:00:00,Yes,1 day,28,-28.996320724487305,25.087142944335938,Matzikama,West Coast,DC1
468,239,West Coast,Matzikama Municipality,Stofkraal Satellite Clinic,Temporary outreach site,Pfizer,2021-06-14 00:00:00,Yes,1 day,28,-28.996320724487305,25.087142944335938,Matzikama,West Coast,DC1
469,240,West Coast,Matzikama Municipality,Vredendal Hospital,Primary vaccination site,Pfizer,2021-06-01 00:00:00,yes,5 days,28,-31.67422,18.50127,Matzikama,West Coast,DC1
470,241,West Coast,Saldanha Bay Municipality,Diazville Community Hall,Temporary outreach site,Pfizer,2021-06-09 00:00:00,Yes,5 days,35,-33.07324,18.05576,Saldanha Bay,West Coast,DC1
471,242,West Coast,Saldanha Bay Municipality,Hopefield Community Hall,Temporary outreach site,Pfizer,2021-06-01 00:00:00,Yes,5 days,35,-33.07324,18.05576,Saldanha Bay,West Coast,DC1
472,243,West Coast,Saldanha Bay Municipality,Langebaan Town Hall,Temporary outreach site,Pfizer,2021-06-07 00:00:00,Yes,2 days,35,-33.07324,18.05576,Saldanha Bay,West Coast,DC1
473,244,West Coast,Saldanha Bay Municipality,Skilpad Hall,Temporary outreach site,Pfizer,2021-06-23 00:00:00,Yes,5 days,35,-33.07324,18.05576,Saldanha Bay,West Coast,DC1
474,245,West Coast,Saldanha Bay Municipality,Sandy Point Community Hall,Temporary outreach site,Pfizer,2021-06-14 00:00:00,Yes,5 days,35,-32.74263,18.00671,Saldanha Bay,West Coast,DC1
475,246,West Coast,Saldanha Bay Municipality,Solomon Paternoster Hall,Temporary outreach site,Pfizer,2021-06-09 00:00:00,Yes,2 days,35,-33.07324,18.05576,Saldanha Bay,West Coast,DC1
476,247,West Coast,Saldanha Bay Municipality,Saldanha Multi-purpose Hall,Temporary outreach site,Pfizer,2021-06-07 00:00:00,Yes,5 days,35,-33.07324,18.05576,Saldanha Bay,West Coast,DC1
477,248,West Coast,Saldanha Bay Municipality,Dial Rock Saldanha,Temporary outreach site,Pfizer,2021-06-07 00:00:00,Yes,5 days,35,-33.07324,18.05576,Saldanha Bay,West Coast,DC1
478,249,West Coast,Saldanha Bay Municipality,Laingville Church,Temporary outreach site,Pfizer,2021-06-14 00:00:00,Yes,5 days,35,-33.07324,18.05576,Saldanha Bay,West Coast,DC1
479,250,West Coast,Saldanha Bay Municipality,Steenbergs Cove,Temporary outreach site,Pfizer,2021-06-14 00:00:00,Yes,5 days,35,-33.07324,18.05576,Saldanha Bay,West Coast,DC1
480,251,West Coast,Swartland Municipality,Moorreesburg Town hall,Temporary outreach site,Pfizer,2021-06-11 00:00:00,Yes,5 days,13,-33.9874,18.52649,Swartland,West Coast,DC1
481,252,West Coast,Swartland Municipality,Darling Community Hall,Temporary outreach site,Pfizer,2021-06-21 00:00:00,Yes,5 days,13,-29.57958,30.38882,Swartland,West Coast,DC1
482,253,West Coast,Swartland Municipality,Riebeek Wes Town Hall,Temporary outreach site,Pfizer,2021-06-29 00:00:00,Yes,5 days,13,-33.35064,18.86992,Swartland,West Coast,DC1
483,254,West Coast,Swartland Municipality,Riebeek Kasteel Community Hall,Temporary outreach site,Pfizer,2021-06-25 00:00:00,Yes,5 days,13,-33.3847,18.89744,Swartland,West Coast,DC1
484,255,West Coast,Swartland Municipality,Wesbank Community Hall,Temporary outreach site,Pfizer,2021-06-01 00:00:00,Yes,4 days,13,-29.57958,30.38882,Swartland,West Coast,DC1
485,256,West Coast,Swartland Municipality,Koringberg Satellite Clinic,Temporary outreach site,Pfizer,2021-06-24 00:00:00,Yes,2 days,13,-28.996320724487305,25.087142944335938,Swartland,West Coast,DC1
486,257,West Coast,Swartland Municipality,Abbotsdale Satellite Clinic,Temporary outreach site,Pfizer,2021-06-10 00:00:00,Yes,1 day,13,-28.996320724487305,25.087142944335938,Swartland,West Coast,DC1
487,258,West Coast,Swartland Municipality,Kalbaskraal Satellite Clinic,Temporary outreach site,Pfizer,2021-06-18 00:00:00,Yes,1 day,13,-28.996320724487305,25.087142944335938,Swartland,West Coast,DC1
488,259,West Coast,Swartland Municipality,Riverlands Satellite Clinic,Temporary outreach site,Pfizer,2021-06-18 00:00:00,Yes,3 days,13,-28.996320724487305,25.087142944335938,Swartland,West Coast,DC1
489,260,West Coast,Swartland Municipality,Yzerfontein Town Hall,Temporary outreach site,Pfizer,2021-07-02 00:00:00,Yes,4 days,13,-33.34492,18.16156,Swartland,West Coast,DC1
490,261,West Coast,Swartland Municipality,Chatsworth Satellite Clinic,Temporary outreach site,Pfizer,2021-06-10 00:00:00,Yes,1 day,13,-28.996320724487305,25.087142944335938,Swartland,West Coast,DC1
491,262,West Coast,Saldanha Bay Municipality,Vredenburg Hospital,Primary vaccination site,Pfizer,2021-06-01 00:00:00,yes,5 days,0,-33.07324,18.05576,Saldanha Bay,West Coast,DC1
492,263,Central Karoo DM,Beaufort West LM,"Dan De Villiers Building Corner of Grimbeeck & Thompson street, Beaufort West",Temporary Outreach site,J&J,2021-07-19 00:00:00,yes,5 days,tbc,-28.996320724487305,25.087142944335938,Beaufort West,Central Karoo,DC5
493,264,Central Karoo DM,Beaufort West LM,Thusung Centre 26 Leed street Murraysburg,Temporary Outreach site,J&J,2021-07-19 00:00:00,yes,5 days,tbc,-26.07724,27.78634,Beaufort West,Central Karoo,DC5
494,265,Central Karoo DM,Laingsburg LM,Thusong Centre Cnr Main & Third Avenue Laingsburg,Temporary Outreach site,J&J,2021-07-19 00:00:00,yes,5 days,tbc,-33.19476,20.86649,Laingsburg,Central Karoo,DC5
495,266,Central Karoo DM,Prince Albert LM,Thusong Centre Church street Prince Albert,Temporary Outreach site,J&J,2021-07-19 00:00:00,yes,5 days,tbc,-33.2227,22.0296,Prince Albert,Central Karoo,DC5
496,267,Garden Route DM,Bitou LM,"Demar Building, Main Road, Knysna",Temporary Outreach site,J&J,2021-07-19 00:00:00,yes,5 days,tbc,,,Bitou,Garden Route,DC4
497,268,Garden Route DM,George LM,"DSD Boardroom, York Park building Ground Floor",Temporary Outreach site,J&J,2021-07-19 00:00:00,yes,5 days,tbc,-28.996320724487305,25.087142944335938,George,Garden Route,DC4
498,269,Garden Route DM,Hessequa LM,"DSD Office, 6 Van Riebeeck Street, Riversdale",Temporary Outreach site,J&J,2021-07-19 00:00:00,yes,5 days,tbc,-34.09268,20.96306,Hessequa,Garden Route,DC4
499,270,Garden Route DM,Kannaland,"Thusong Cente, Ladismith",Temporary Outreach site,J&J,2021-07-19 00:00:00,yes,5 days,tbc,-33.4943,21.26933,Kannaland,Garden Route,DC4
500,271,Garden Route DM,Knysna LM,"Demar Building, Main Road, Knysna",Temporary Outreach site,J&J,2021-07-19 00:00:00,yes,5 days,tbc,,,Knysna,Garden Route,DC4
501,272,Garden Route DM,Mossel Bay LM,"DSD Office, 24 Marsh Street, Mossel Bay",Temporary Outreach site,J&J,2021-07-19 00:00:00,yes,5 days,tbc,-34.18325,22.15151,Mossel Bay,Garden Route,DC4
502,273,Garden Route DM,Oudtshoorn LM,"Seppie Greeff Building, Voortrekker Road",Temporary Outreach site,J&J,2021-07-19 00:00:00,yes,5 days,tbc,-33.59418,22.22247,Oudtshoorn,Garden Route,DC4
503,0,Sedibeng DM,Emfuleni LM,Saul Tsotetsi,fixed outreach site,J&J,23/06/2021,yes,5 days,240,-26.69811,27.78513,Emfuleni,Sedibeng,DC42
504,1,Sedibeng DM,Midvaal,lakeside hall,fixed outreach site,J&J,23/06/2021,yes,5 days,80,-26.43001,28.10214,Midvaal,Sedibeng,DC42
505,2,Sedibeng DM,Lesedi LM,Impumelelo Hall,fixed outreach site,Pfizer,23/06/2021,yes,5 days,80,-26.34896,28.76905,Lesedi,Sedibeng,DC42
506,3,Sedibeng DM,Lesedi LM,Heidelberg town hall,fixed outreach site,J&J,23/06/2021,yes,5 days,120,-26.52656,28.38236,Lesedi,Sedibeng,DC42
507,4,Sedibeng DM,Emfuleni LM,Sebokeng Hospital,primary vaccination site,J&J,23/06/2021,yes,5 days,320,-26.60894,27.8494,Emfuleni,Sedibeng,DC42
508,5,Sedibeng DM,Emfuleni LM,Levai Mbatha CHC,primary vaccination site,Pfizer,31/05/2021,yes,5 days,120,-26.67966,27.78717,Emfuleni,Sedibeng,DC42
509,6,Sedibeng DM,Lesedi LM,Johan Heyns CHC,primary vaccination site,Pfizer,31/05/2021,yes,5 days,160,-33.59061,18.48811,Lesedi,Sedibeng,DC42
510,7,Sedibeng DM,Lesedi LM,Ratanda,primary vaccination site,Pfizer,31/05/2021,yes,5 days,160,-28.996320724487305,25.087142944335938,Lesedi,Sedibeng,DC42
511,8,Sedibeng DM,Emfuleni LM,Market banquet hall,primary vaccination site,Pfizer,31/05/2021,yes,5 days,120,-33.77382,25.39547,Emfuleni,Sedibeng,DC42
512,9,Sedibeng DM,Emfuleni LM,Sharpeville,fixed outreach site,Pfizer,31/05/2021,yes,5 days,120,-26.73356,27.59493,Emfuleni,Sedibeng,DC42
513,10,Sedibeng DM,Lesedi LM,Jameson Park Clinic,fixed outreach site,Pfizer,31/05/2021,yes,5 days,80,-23.85556,29.42197,Lesedi,Sedibeng,DC42
514,11,Sedibeng DM,Emfuleni LM,mafatsana thusong hall,fixed outreach site,Pfizer,31/05/2021,yes,5 days,160,-28.996320724487305,25.087142944335938,Emfuleni,Sedibeng,DC42
515,12,Sedibeng DM,Lesedi LM,usizolwethu clinic,primary vaccination site,Pfizer,31/05/2021,yes,5 days,80,-26.52062,28.29887,Lesedi,Sedibeng,DC42
516,13,Sedibeng DM,Midvaal,Midvaal,fixed outreach site,Pfizer,31/05/2021,yes,5 days,120,-26.36159,27.97871,Midvaal,Sedibeng,DC42
517,14,Johannesburg MM,Johannesburg F SD,Hillbrow CHC,primary vaccination site,Pfizer,17/05/2021,Yes,5 days,240,-26.18881,28.04769,,City of Johannesburg,JHB
518,15,Johannesburg MM,Johannesburg E SD,Alexandra CHC,primary vaccination site,Pfizer,17/05/2021,Yes,5 days,240,-26.09925,28.10835,,City of Johannesburg,JHB
519,16,Johannesburg MM,Johannesburg D SD,Chiawelo CHC,primary vaccination site,Pfizer,17/05/2021,Yes,5 days,240,-26.2796,27.86375,,City of Johannesburg,JHB
520,17,Johannesburg MM,Johannesburg D SD,Itireleng CHC,primary vaccination site,Pfizer,17/05/2021,Yes,5 days,160,-26.09441,28.17343,,City of Johannesburg,JHB
521,18,Johannesburg MM,Johannesburg G SD,Stretford CHC,primary vaccination site,Pfizer,17/05/2021,Yes,5 days,160,-26.49252,27.84504,,City of Johannesburg,JHB
522,19,Johannesburg MM,Johannesburg G SD,Lenasia South Hospital,primary vaccination site,Pfizer,17/05/2021,Yes,5 days,200,-26.38351,27.84183,,City of Johannesburg,JHB
523,20,Johannesburg MM,Johannesburg D SD,CHBAH Recreational Centre,primary vaccination site,Pfizer,17/05/2021,Yes,7 days,720,-26.21612,28.04611,,City of Johannesburg,JHB
524,21,Johannesburg MM,Johannesburg C SD,Discoverers CHC,primary vaccination site,Pfizer,17/05/2021,Yes,5 days,240,-26.20145,28.04549,,City of Johannesburg,JHB
525,22,Johannesburg MM,Johannesburg G SD,Lenasia South Extension 5 Clinic,primary vaccination site,Pfizer,17/05/2021,Yes,5 days,200,-26.34856,27.85242,,City of Johannesburg,JHB
526,23,Johannesburg MM,Johannesburg F SD,Charlotte Maxeke Hospital,primary vaccination site,Pfizer,24/05/2021,Yes,5 days,800,-29.85191,31.01609,,City of Johannesburg,JHB
527,24,Johannesburg MM,Johannesburg C SD,Danny Van Zyl recreational centre,primary vaccination site,Pfizer,31/05/2021,Yes,5 days,280,-26.21612,28.04611,,City of Johannesburg,JHB
528,25,Johannesburg MM,Johannesburg A SD,Lord Khanyile Hall,primary vaccination site,Pfizer,02/06/2021,Yes,5 days,240,-26.00248,28.18358,,City of Johannesburg,JHB
529,26,Johannesburg MM,Johannesburg D SD,Kanana Community Hall,primary vaccination site,Pfizer,31/05/2021,Yes,5 days,400,-29.57958,30.38882,,City of Johannesburg,JHB
530,27,Johannesburg MM,Johannesburg F SD,Yeoville recreation centre,primary vaccination site,Pfizer,31/05/2021,Yes,5 days,400,-28.996320724487305,25.087142944335938,,City of Johannesburg,JHB
531,28,Johannesburg MM,Johannesburg B SD,Berairo Recreational Hall,primary vaccination site,Pfizer,07/05/2021,Yes,5 days,360,-28.996320724487305,25.087142944335938,,City of Johannesburg,JHB
532,29,Johannesburg MM,Johannesburg G SD,WitPooitjie Recreational Center,primary vaccination site,Pfizer,07/05/2021,Yes,5 days,400,-28.996320724487305,25.087142944335938,,City of Johannesburg,JHB
533,30,Johannesburg MM,Johannesburg D SD,Kopanong Community Hall,primary vaccination site,Pfizer,07/05/2021,Yes,5 days,400,-28.996320724487305,25.087142944335938,,City of Johannesburg,JHB
534,31,Johannesburg MM,Johannesburg D SD,Makhaya Community Hall,primary vaccination site,Pfizer,07/05/2021,Yes,5 days,400,-28.996320724487305,25.087142944335938,,City of Johannesburg,JHB
535,32,Johannesburg MM,Johannesburg D SD,Meadowlands zone 10 Hall,primary vaccination site,Pfizer,07/05/2021,Yes,5 days,360,-26.2192,27.88052,,City of Johannesburg,JHB
536,33,Johannesburg MM,Johannesburg E SD,Wendy wood Sports and Recreational Centre,primary vaccination site,Pfizer,07/05/2021,Yes,5 days,400,-28.996320724487305,25.087142944335938,,City of Johannesburg,JHB
537,34,Johannesburg MM,Johannesburg F SD,Mondeor Recreational Centre,primary vaccination site,Pfizer,01/06/2021,Yes,5 days,400,-26.27189,28.00154,,City of Johannesburg,JHB
538,35,Johannesburg MM,Johannesburg D SD,Diepkloof Community Hall,primary vaccination site,Pfizer,31/05/2021,Yes,5 days,400,-26.2586,27.95659,,City of Johannesburg,JHB
539,36,Johannesburg MM,Johannesburg D SD,Naledi Community Hall,primary vaccination site,Pfizer,31/05/2021,Yes,5 days,360,-29.57958,30.38882,,City of Johannesburg,JHB
540,37,Johannesburg MM,Johannesburg D SD,Naledi Ext 2 Sports Centre,primary vaccination site,Pfizer,07/06/2021,Yes,5 days,360,-28.996320724487305,25.087142944335938,,City of Johannesburg,JHB
541,38,Johannesburg MM,Johannesburg G SD,Weilers Farm Hall at Clinic,primary vaccination site,Pfizer,07/06/2021,Yes,5 days,360,-28.996320724487305,25.087142944335938,,City of Johannesburg,JHB
542,39,Johannesburg MM,Johannesburg E SD,Marlboro Sport Complex,primary vaccination site,Pfizer,31/05/2021,Yes,5 days,400,-26.08258,28.10646,,City of Johannesburg,JHB
543,40,Johannesburg MM,Johannesburg E SD,Sport Complex Alexandra Eastbank,primary vaccination site,Pfizer,31/05/2021,Yes,5 days,240,-26.09925,28.10835,,City of Johannesburg,JHB
544,41,Johannesburg MM,Johannesburg G SD,Ennerdale Ext 9 Community Centre,primary vaccination site,Pfizer,31/05/2021,Yes,5 days,360,-26.27919,28.03484,,City of Johannesburg,JHB
545,42,Johannesburg MM,Johannesburg A SD,Midrand LA EMS,Primary Vaccination Site,Pfizer,07/06/2021,Yes,5 days,240,-25.99645,28.08488,,City of Johannesburg,JHB
546,43,Johannesburg MM,Johannesburg A SD,Diepsloot youth Centre,Primary Vaccination Site,Pfizer,Jun/Wed/2021202120212021,Yes,5 days,240,-25.93015,28.01152,,City of Johannesburg,JHB
547,44,Johannesburg MM,Johannesburg A SD,Witkoppen Clinic,primary vaccination site,J&J,23/06/2021,Yes,5 days,400,-26.00449,28.01053,,City of Johannesburg,JHB
548,45,Johannesburg MM,Johannesburg F SD,Gross Venor Hall,primary vaccination site,J&J,23/06/2021,Yes,5 days,400,-26.39165,27.85403,,City of Johannesburg,JHB
549,46,Johannesburg MM,Johannesburg BSD,Parkhurst Recreationl Centre,primary vaccination site,J&J,23/06/2021,Yes,5 days,240,-26.13837,28.0178,,City of Johannesburg,JHB
550,47,Johannesburg MM,Johannesburg C SD,Roodepoort Town Hall,primary vaccination site,J&J,24/06/2021,Yes,5 days,200,-26.14263,27.88745,,City of Johannesburg,JHB
551,48,Johannesburg MM,Johannesburg C SD,Flerhoff Community Centre,primary vaccination site,J&J,24/06/2021,Yes,5 days,200,-26.21612,28.04611,,City of Johannesburg,JHB
552,49,Johannesburg MM,Johannesburg C SD,Nkone Maruping Primary(Braamfischer Hall),primary vaccination site,J&J,23/06/2021,Yes,5 days,120,-28.996320724487305,25.087142944335938,,City of Johannesburg,JHB
553,50,Johannesburg MM,Johannesburg G SD,Arekopaneng Community Hall,primary vaccination site,J&J,23/06/2021,Yes,5 days,120,-29.57958,30.38882,,City of Johannesburg,JHB
554,51,Johannesburg MM,Johannesburg D SD,Grace Bible Church Drive thru,primary vaccination site,J&J,23/06/2021,Yes,5 days,200,-26.409,27.90275,,City of Johannesburg,JHB
555,52,Johannesburg MM,Johannesburg D SD,Phelophepha Train,primary vaccination site,Pfizer,21/06/2021,Yes,5 days,120,-26.09441,28.17343,,City of Johannesburg,JHB
556,53,Johannesburg MM,Johannesburg G SD,Freedom park clinic,primary vaccination site,Pfizer,21/06/2021,Yes,5 days,240,-25.97887,28.20194,,City of Johannesburg,JHB
557,54,Johannesburg MM,Johannesburg D SD,Poortjie clinic,primary vaccination site,Pfizer,21/06/2021,Yes,5 days,160,-26.45909,27.76752,,City of Johannesburg,JHB
558,55,Johannesburg MM,Johannesburg C SD,Tshepisong clinic,primary vaccination site,Pfizer,21/06/2021,Yes,5 days,120,-26.19116,27.80806,,City of Johannesburg,JHB
559,56,Johannesburg MM,Johannesburg D SD,Maropeng clinic,primary vaccination site,Pfizer,21/06/2021,Yes,5 days,160,-26.09441,28.17343,,City of Johannesburg,JHB
560,57,Johannesburg MM,Johannesburg SD,Zandspruit,primary vaccination site,pfizer,04/06/2021,Yes,5 days,200,-26.0591,27.90669,City of Johannesburg,City of Johannesburg,JHB
561,58,Ekurhuleni MM,ekurhuleni S,Alberton civic centre,fixed outreach site,J&J,23/06/2021,Yes,5 days,240,-26.34642,28.11679,,Ekurhuleni,EKU
562,59,Ekurhuleni MM,ekurhuleni s,Alberton clinic,primary vaccination site,Pfizer,17/05/2021,Yes,5 days,120,-26.34642,28.11679,,Ekurhuleni,EKU
563,60,Ekurhuleni MM,ekurhuleni E,springs hall,fixed outreach site,J&J,23/06/2021,Yes,5 days,240,-26.17557,28.42923,,Ekurhuleni,EKU
564,61,Ekurhuleni MM,ekurhuleni N,Rabosotho hall,fixed outreach site,J&J,23/06/2021,Yes,5 days,400,-26.21581,28.37733,,Ekurhuleni,EKU
565,62,Ekurhuleni MM,ekurhuleni E,KwaThema CHC,fixed outreach site,J&J,23/06/2021,Yes,5 days,80,-28.996320724487305,25.087142944335938,,Ekurhuleni,EKU
566,63,Ekurhuleni MM,ekurhuleni N,actonville hall,fixed outreach site,J&J,23/06/2021,Yes,5 days,200,-26.20915,28.30882,,Ekurhuleni,EKU
567,64,Ekurhuleni MM,ekurhuleni N,Christian family Church Drive Through,fixed outreach site,J&J,23/06/2021,Yes,5 days,320,-26.00788,28.24041,,Ekurhuleni,EKU
568,65,Ekurhuleni MM,ekurhuleni S,DH Williams,fixed outreach site,J&J,23/06/2021,Yes,5 days,320,-26.02553,28.21223,,Ekurhuleni,EKU
569,66,Ekurhuleni MM,ekurhuleni N,Midstream Primary,fixed outreach site,J&J,23/06/2021,Yes,5 days,240,-25.91333,28.18564,,Ekurhuleni,EKU
570,67,Ekurhuleni MM,ekurhuleni E,Phillip Moyo CHC,fixed outreach site,J&J,23/06/2021,Yes,5 days,80,,,,Ekurhuleni,EKU
571,68,Ekurhuleni MM,ekurhuleni E,Phillip Moyo CHC,fixed outreach site,Pfizer,17/05/2021,Yes,5 days,80,,,,Ekurhuleni,EKU
572,69,Ekurhuleni MM,ekurhuleni E,Tsakane clinic,fixed outreach site,J&J,23/06/2021,Yes,5 days,160,-26.37475,28.37404,,Ekurhuleni,EKU
573,70,Ekurhuleni MM,ekurhuleni S,Vosloorus hall,fixed outreach site,J&J,23/06/2021,Yes,5 days,240,-26.38356,28.17689,,Ekurhuleni,EKU
574,71,Ekurhuleni MM,ekurhuleni N,Kempton Park Civic Centre,primary vaccination site,J&J,23/06/2021,Yes,5 days,320,-28.996320724487305,25.087142944335938,,Ekurhuleni,EKU
575,72,Ekurhuleni MM,ekurhuleni N,Esangweni CHC christian church unternational,primary vaccination site,Pfizer,17/05/2021,Yes,5 days,240,-27.91029,25.15848,,Ekurhuleni,EKU
576,73,Ekurhuleni MM,ekurhuleni E,Daveyton CDC main,primary vaccination site,Pfizer,17/05/2021,Yes,5 days,160,-26.20682,28.24418,,Ekurhuleni,EKU
577,74,Ekurhuleni MM,ekurhuleni E,Nokuthela Ngwenya CHC,primary vaccination site,Pfizer,17/05/2021,Yes,5 days,160,-28.996320724487305,25.087142944335938,,Ekurhuleni,EKU
578,75,Ekurhuleni MM,ekurhuleni S,Jabulani Dumane CHC,primary vaccination site,Pfizer,17/05/2021,Yes,5 days,240,-26.38394,28.17349,,Ekurhuleni,EKU
579,76,Ekurhuleni MM,ekurhuleni S,Bertha Gqxowa Hospital (Kobie Muller Hall),primary vaccination site,Pfizer,17/05/2021,Yes,5 days,600,-25.96602,28.21195,,Ekurhuleni,EKU
580,77,Ekurhuleni MM,ekurhuleni n,Boksburg Civic Hall,primary vaccination site,Pfizer,20/05/2021,Yes,5 days,160,-26.23202,28.25218,,Ekurhuleni,EKU
581,78,Ekurhuleni MM,ekurhuleni e,gp Duduza Clinic,primary vaccination site,Pfizer,25/05/2021,Yes,5 days,160,-28.996320724487305,25.087142944335938,Ekurhuleni,Ekurhuleni,EKU
582,79,Ekurhuleni MM,ekurhuleni s,gp Esangweni CHC,primary vaccination site,J&J,23/06/2021,Yes,5 days,240,-26.02553,28.21223,,Ekurhuleni,EKU
583,80,Ekurhuleni MM,ekurhuleni e,gp Joy Clinic,primary vaccination site,Pfizer,17/05/2021,Yes,5 days,80,-28.996320724487305,25.087142944335938,Ekurhuleni,Ekurhuleni,EKU
584,81,Ekurhuleni MM,ekurhuleni s,gp Phola Park CHC,primary vaccination site,Pfizer,25/05/2021,Yes,5 days,80,-26.36177,28.12301,,Ekurhuleni,EKU
585,82,Ekurhuleni MM,erkurhuleni s,gp Thelle Mogoerane Regional Hospital,primary vaccination site,Pfizer,22/02/2021,Yes,5 days,560,-26.21893,28.16496,,Ekurhuleni,EKU
586,83,Ekurhuleni MM,erkurhuleni n,Tembisa Hospital,primary vaccination site,Pfizer,25/05/2021,Yes,5 days,160,-28.996320724487305,25.087142944335938,,Ekurhuleni,EKU
587,84,Ekurhuleni MM,ekurhuleni s,Thokoza youth center,primary vaccination site,Pfizer,11/06/2021,Yes,5 days,200,-26.02553,28.21223,,Ekurhuleni,EKU
588,85,Ekurhuleni MM,ekurhuleni e,Pholosong hospital,primary vaccination site,Pfizer,22/02/2021,Yes,5 days,240,-28.996320724487305,25.087142944335938,Ekurhuleni,Ekurhuleni,EKU
589,86,West rand District,Rand West City LM,westonaria civic center (Education Department),fixed outreach site,J&J,23/06/2021,Yes,5 days,200,-26.16983,27.75803,Rand West City,West Rand,DC48
590,87,West rand District,Rand West City LM,westonaria civic center,fixed outreach site,Pfizer,26/05/2021,Yes,5 days,80,-26.1383,27.58702,Rand West City,West Rand,DC48
591,88,West rand District,Rand West City LM,greenhills stadium (Education Department),Temporary outreach site (with cooler box),J&J,23/06/2021,Yes,5 days,200,-26.1383,27.58702,Rand West City,West Rand,DC48
592,89,West rand District,Rand West City LM,greenhills stadium,Temporary outreach site,Pfizer,14/06/2021,Yes,5 days,0,-26.1383,27.58702,Rand West City,West Rand,DC48
593,90,West rand District,Merafong City LM,Carletonville hospital,primary vaccination site,Pfizer,18/05/2021,Yes,5 days,120,-33.91221,18.61149,Merafong City,West Rand,DC48
594,91,West rand District,Merafong City LM,carletonville civic center (Education Department),fixed outreach site,J&J,23/06/2021,Yes,5 days,80,-28.996320724487305,25.087142944335938,Merafong City,West Rand,DC48
595,92,West rand District,Mogale City LM,Jubilee hall (Education Department),fixed outreach site,J&J,23/06/2021,Yes,5 days,200,-34.18964,18.425,Mogale City,West Rand,DC48
596,93,West rand District,Mogale City LM,Jubilee hall,fixed outreach site,Pfizer,02/06/2021,Yes,5 days,0,-25.99615,27.53784,Mogale City,West Rand,DC48
